Facility ID,Facility Name,Address,City,ZIP Code,CountyName,State,county_state,address,HBIPS-2 Measure Description,HBIPS-2 Overall Rate Per 1000,HBIPS-2 Overall Num,HBIPS-2 Overall Den,HBIPS-3 Measure Description,HBIPS-3 Overall Rate Per 1000,HBIPS-3 Overall Num,HBIPS-3 Overall Den,geolocated-address,latitude-comma,longitude-comma,latitude,longitude, historical_90 , slow_90 , no_90 , rapid_90 ,WFIR_EALT,WFIR_EALS,WFIR_EALR,WFIR_RISKS,WFIR_RISKR
10007,MIZELL MEMORIAL HOSPITAL,702 N MAIN ST,OPP,36467,COVINGTON,AL,COVINGTON_AL,702 N MAIN ST OPP AL 36467,Hours of physical-restraint use,0,0,2448,Hours of seclusion use,0,0,2448,"702 North Main Street, Opp, AL, USA","31,292,574","-86,254,436",31.292574,-86.254436,97.52518,142.4892,167.2014,135.7626,18301.73362,4.870561881,Very Low,5.240335543,Very Low
10008,CRENSHAW COMMUNITY HOSPITAL,101 HOSPITAL CIRCLE,LUVERNE,36049,CRENSHAW,AL,CRENSHAW_AL,101 HOSPITAL CIRCLE LUVERNE AL 36049,Hours of physical-restraint use,0.04,3.7,4252,Hours of seclusion use,0.16,16.16,4252,"101 Hospital Circle, Luverne, AL, USA","31,693,827","-86,264,249",31.693827,-86.264249,92.34737,138.4421,163.6737,131.621,1185.478142,1.956047991,Very Low,1.687018239,Very Low
10011,ST. VINCENT'S EAST,50 MEDICAL PARK EAST DRIVE,BIRMINGHAM,35235,JEFFERSON,AL,JEFFERSON_AL,50 MEDICAL PARK EAST DRIVE BIRMINGHAM AL 35235,Hours of physical-restraint use,0.38,250.9,27625,Hours of seclusion use,0.12,79.8,27625,"Birmingham, AL, USA","33,530,651","-86,800,929",33.530651,-86.800929,76.2625,122.5,148.4,115.7063,7811.279908,3.667096925,Very Low,3.225738589,Very Low
10012,DEKALB REGIONAL MEDICAL CENTER,200 MED CENTER DRIVE,FORT PAYNE,35968,DEKALB,AL,DEKALB_AL,200 MED CENTER DRIVE FORT PAYNE AL 35968,Hours of physical-restraint use,0,0,4467,Hours of seclusion use,0,0,4467,"Fort Payne, AL, USA","34,452,834","-85,701,505",34.452834,-85.701505,48.37931,100.5259,130.1897,93.45689,6545.719341,3.457276511,Very Low,3.192236849,Very Low
10016,SHELBY BAPTIST MEDICAL CENTER,1000 FIRST STREET NORTH,ALABASTER,35007,SHELBY,AL,SHELBY_AL,1000 FIRST STREET NORTH ALABASTER AL 35007,Hours of physical-restraint use,0,0,8399,Hours of seclusion use,0,0,8399,"Alabaster, AL, USA","33,246,702","-86,813,699",33.246702,-86.813699,78.59504,125.1074,151.405,118.2066,3013.06126,2.669424504,Very Low,1.1983419,Very Low
10021,DALE MEDICAL CENTER,126 HOSPITAL AVE,OZARK,36360,DALE,AL,DALE_AL,126 HOSPITAL AVE OZARK AL 36360,Hours of physical-restraint use,0,0,1430,Hours of seclusion use,0,0,1430,"126 Hospital Avenue, Ozark, AL, USA","314,511","-85,632,426",31.4511,-85.632426,90.40476,137.9167,163.7976,130.9881,1586.954255,2.155773479,Very Low,1.91851758,Very Low
10023,BAPTIST MEDICAL CENTER SOUTH,2105 EAST SOUTH BOULEVARD,MONTGOMERY,36116,MONTGOMERY,AL,MONTGOMERY_AL,2105 EAST SOUTH BOULEVARD MONTGOMERY AL 36116,Hours of physical-restraint use,0.04,11.95,12003,Hours of seclusion use,0.38,108.82,12003,"2105 East South Boulevard, Montgomery, AL, USA","32,328,457","-86,277,826",32.328457,-86.277826,90.12174,135.3913,160.8261,128.6522,3103.128479,2.69576217,Very Low,2.577693572,Very Low
10033,UNIVERSITY OF ALABAMA HOSPITAL,619 SOUTH 19TH STREET,BIRMINGHAM,35233,JEFFERSON,AL,JEFFERSON_AL,619 SOUTH 19TH STREET BIRMINGHAM AL 35233,Hours of physical-restraint use,0,0.71,32563,Hours of seclusion use,0.01,4.46,32563,"Birmingham, AL, USA","33,530,651","-86,800,929",33.530651,-86.800929,76.2625,122.5,148.4,115.7063,7811.279908,3.667096925,Very Low,3.225738589,Very Low
10034,COMMUNITY HOSPITAL INC,805 FRIENDSHIP ROAD,TALLASSEE,36078,ELMORE,AL,ELMORE_AL,805 FRIENDSHIP ROAD TALLASSEE AL 36078,Hours of physical-restraint use,0,0,898,Hours of seclusion use,0,0,898,"805 Friendship Rd, Tallassee, AL, USA","32,533,936","-85,912,266",32.533936,-85.912266,80.55446,128.0099,154.6139,121.3267,5909.714726,3.341466883,Very Low,2.231162973,Very Low
10039,HUNTSVILLE HOSPITAL,101 SIVLEY RD,HUNTSVILLE,35801,MADISON,AL,MADISON_AL,101 SIVLEY RD HUNTSVILLE AL 35801,Hours of physical-restraint use,0,0,8268,Hours of seclusion use,0,0,8268,"Huntsville, AL, USA","34,756,007","-86,616,034",34.756007,-86.616034,56.525,106.9333,135.4833,100.2333,1941.565225,2.305679742,Very Low,1.378789015,Very Low
10040,GADSDEN REGIONAL MEDICAL CENTER,1007 GOODYEAR AVENUE,GADSDEN,35903,ETOWAH,AL,ETOWAH_AL,1007 GOODYEAR AVENUE GADSDEN AL 35903,Hours of physical-restraint use,0,0,4584,Hours of seclusion use,0,0,4584,"Goodyear Ave, Gadsden, AL, USA","34,001,949","-85,950,382",34.001949,-85.950382,63.375,112.65,140.1,106.0125,2287.79338,2.435308148,Very Low,2.439763711,Very Low
10046,RIVERVIEW REGIONAL MEDICAL CENTER,600 SOUTH THIRD STREET,GADSDEN,35901,ETOWAH,AL,ETOWAH_AL,600 SOUTH THIRD STREET GADSDEN AL 35901,Hours of physical-restraint use,0,0,1769,Hours of seclusion use,0,0,1769,"600 South Third Street, Gadsden, AL, USA","34,004,263","-86,003,347",34.004263,-86.003347,63.375,112.65,140.1,106.0125,2287.79338,2.435308148,Very Low,2.439763711,Very Low
10062,WIREGRASS MEDICAL CENTER,1200 W MAPLE AVENUE,GENEVA,36340,GENEVA,AL,GENEVA_AL,1200 W MAPLE AVENUE GENEVA AL 36340,Hours of physical-restraint use,0,0,269,Hours of seclusion use,0,0,269,"1200 West Maple Avenue, Geneva, AL, USA","31,049,297","-85,892,129",31.049297,-85.892129,89.95588,138.1765,163.8971,131.2647,3091.347126,2.692346262,Very Low,2.636332483,Very Low
10069,MEDICAL CENTER BARBOUR,820 W WASHINGTON ST,EUFAULA,36027,BARBOUR,AL,BARBOUR_AL,820 W WASHINGTON ST EUFAULA AL 36027,Hours of physical-restraint use,0,0,1945,Hours of seclusion use,0,0,1945,"820 West Washington Street, Eufaula, AL, USA","31,888,649","-85,156,199",31.888649,-85.156199,84.78333,132.625,159.3083,125.8583,1638.065345,2.178673059,Very Low,1.999049868,Very Low
10078,NORTHEAST ALABAMA REGIONAL MEDICAL CENTER,400 EAST 10TH STREET,ANNISTON,36207,CALHOUN,AL,CALHOUN_AL,400 EAST 10TH STREET ANNISTON AL 36207,Hours of physical-restraint use,0,0,2134,Hours of seclusion use,0,0,2134,"400 East 10th Street, Anniston, AL, USA","3,365,558","-85,822,631",33.65558,-85.822631,66.42046,115.7273,143.0455,109.1591,4399.625742,3.028448785,Very Low,2.843367612,Very Low
10085,DECATUR MORGAN HOSPITAL - DECATUR CAMPUS,1201 7TH STREET SE,DECATUR,35601,MORGAN,AL,MORGAN_AL,1201 7TH STREET SE DECATUR AL 35601,Hours of physical-restraint use,0.05,13.16,11895,Hours of seclusion use,0.04,12.17,11895,"1201 7th Street Southeast, Decatur, AL, USA","34,591,133","-86,971,641",34.591133,-86.971641,62.3908,111.4828,139.1379,104.7586,1678.269906,2.196353588,Very Low,1.845489988,Very Low
10086,NORTHWEST MEDICAL CENTER,1530 U S HIGHWAY 43,WINFIELD,35594,FAYETTE,AL,FAYETTE_AL,1530 U S HIGHWAY 43 WINFIELD AL 35594,Hours of physical-restraint use,0,0,2393,Hours of seclusion use,0,0,2393,"Winfield, AL, USA","33,928,212","-87,800,615",33.928212,-87.800615,75.82291,121.9479,147.0521,115.3854,640.2110694,1.592903189,Very Low,1.717196046,Very Low
10089,WALKER BAPTIST MEDICAL CENTER,3400 HIGHWAY 78 EAST,JASPER,35502,WALKER,AL,WALKER_AL,3400 HIGHWAY 78 EAST JASPER AL 35502,Hours of physical-restraint use,0,0,10565,Hours of seclusion use,0,0,10565,"Jasper, AL, USA","33,837,731","-87,264,946",33.837731,-87.264946,73.44715,120.2358,146.0406,113.4553,3020.33303,2.671570256,Very Low,2.656843693,Very Low
10091,GROVE HILL MEMORIAL HOSPITAL,295 JACKSON HWY S,GROVE HILL,36451,CLARKE,AL,CLARKE_AL,295 JACKSON HWY S GROVE HILL AL 36451,Hours of physical-restraint use,0,0,1900,Hours of seclusion use,0,0,1900,"Grove Hill, AL, USA","31,699,605","-87,775,481",31.699605,-87.775481,98.36313,142.7989,166.2514,135.7542,16802.13113,4.733725955,Very Low,5.530211641,Very Low
10092,DCH REGIONAL MEDICAL CENTER,809 UNIVERSITY BOULEVARD EAST,TUSCALOOSA,35401,TUSCALOOSA,AL,TUSCALOOSA_AL,809 UNIVERSITY BOULEVARD EAST TUSCALOOSA AL 35401,Hours of physical-restraint use,0.25,99,16595,Hours of seclusion use,0.11,45,16595,"809 University Blvd E, Tuscaloosa, AL, USA","33,205,212","-87,525,457",33.205212,-87.525457,83.51309,127.9162,152.4974,121.2199,7819.260207,3.668345315,Very Low,2.823324869,Very Low
10103,PRINCETON BAPTIST MEDICAL CENTER,701 PRINCETON AVENUE SOUTHWEST,BIRMINGHAM,35211,JEFFERSON,AL,JEFFERSON_AL,701 PRINCETON AVENUE SOUTHWEST BIRMINGHAM AL 35211,Hours of physical-restraint use,0,0,14472,Hours of seclusion use,0,0,14472,"701 Princeton Avenue Southwest, Birmingham, AL, USA","33,498,659","-86,846,501",33.498659,-86.846501,76.2625,122.5,148.4,115.7063,7811.279908,3.667096925,Very Low,3.225738589,Very Low
10104,GRANDVIEW MEDICAL CENTER,3690 GRANDVIEW PARKWAY,BIRMINGHAM,35243,JEFFERSON,AL,JEFFERSON_AL,3690 GRANDVIEW PARKWAY BIRMINGHAM AL 35243,Hours of physical-restraint use,0.5,46.75,3890,Hours of seclusion use,0,0,3890,"3690 Grandview Parkway, Birmingham, AL, USA","3,343,323","-86,718,377",33.43323,-86.718377,76.2625,122.5,148.4,115.7063,7811.279908,3.667096925,Very Low,3.225738589,Very Low
10110,BULLOCK COUNTY HOSPITAL,102 WEST CONECUH AVENUE,UNION SPRINGS,36089,BULLOCK,AL,BULLOCK_AL,102 WEST CONECUH AVENUE UNION SPRINGS AL 36089,Hours of physical-restraint use,0,0,8876,Hours of seclusion use,0.52,110,8876,"West Conecuh Avenue, Union Springs, AL, USA","32,143,356","-857,141",32.143356,-85.7141,84.81396,131.6279,157.9884,124.9186,580.3247173,1.5416011,Very Low,1.575482903,Very Low
10112,WHITFIELD REGIONAL HOSPITAL,105 HIGHWAY 80 EAST,DEMOPOLIS,36732,MARENGO,AL,MARENGO_AL,105 HIGHWAY 80 EAST DEMOPOLIS AL 36732,Hours of physical-restraint use,0.64,69.63,4548,Hours of seclusion use,1.71,186.33,4548,"105 Highway 80 East, Demopolis, AL, USA","32,504,904","-87,836,968",32.504904,-87.836968,94.02817,137.5282,161.3169,130.5352,716.4789564,1.653799293,Very Low,1.887414325,Very Low
10113,MOBILE INFIRMARY MEDICAL CENTER,5 MOBILE INFIRMARY CIRCLE,MOBILE,36607,MOBILE,AL,MOBILE_AL,5 MOBILE INFIRMARY CIRCLE MOBILE AL 36607,Hours of physical-restraint use,0.06,8.58,5996,Hours of seclusion use,0,0,5996,"5 Mobile Infirmary Cir, Mobile, AL, USA","30,699,225","-88,079,477",30.699225,-88.079477,93.23563,140.7644,165.546,133.931,2749049.306,25.89062286,Relatively Moderate,23.79001515,Relatively Moderate
10114,"MEDICAL WEST, AN AFFILIATE OF UAB HEALTH SYSTEM",995 9TH AVENUE SOUTHWEST,BESSEMER,35021,JEFFERSON,AL,JEFFERSON_AL,995 9TH AVENUE SOUTHWEST BESSEMER AL 35021,Hours of physical-restraint use,0.77,42.71,2299,Hours of seclusion use,0,0,2299,"995 9th Ave Southwest, Bessemer, AL, USA","33,372,517","-86,990,428",33.372517,-86.990428,76.2625,122.5,148.4,115.7063,7811.279908,3.667096925,Very Low,3.225738589,Very Low
10125,LAKELAND COMMUNITY HOSPITAL,42024 HIGHWAY 195 E,HALEYVILLE,35565,WINSTON,AL,WINSTON_AL,42024 HIGHWAY 195 E HALEYVILLE AL 35565,Hours of physical-restraint use,0,0,1741,Hours of seclusion use,0,0,1741,"42024 Highway 195 East, Haleyville, AL, USA","34,242,085","-87,591,734",34.242085,-87.591734,62.30337,112.1348,139.7528,105.0899,2130.547297,2.378183612,Very Low,2.550549212,Very Low
10126,TROY REGIONAL MEDICAL CENTER,1330 HIGHWAY 231 SOUTH,TROY,36081,PIKE,AL,PIKE_AL,1330 HIGHWAY 231 SOUTH TROY AL 36081,Hours of physical-restraint use,0,0,4064,Hours of seclusion use,0,0,4064,"Troy, AL, USA","3,179,822","-85,968,781",31.79822,-85.968781,89.30769,136.4615,162.0659,129.5824,572.1530037,1.534330964,Very Low,1.416760894,Very Low
10129,NORTH BALDWIN INFIRMARY,1815 HAND AVENUE,BAY MINETTE,36507,BALDWIN,AL,BALDWIN_AL,1815 HAND AVENUE BAY MINETTE AL 36507,Hours of physical-restraint use,0,0,4540,Hours of seclusion use,0,0,4540,"1815 Hand Avenue, Bay Minette, AL, USA","30,903,582","-87,785,194",30.903582,-87.785194,95.75641,141.6154,166.2308,135.0299,1195503.845,19.61546681,Relatively Moderate,16.50134966,Relatively Moderate
10139,BROOKWOOD BAPTIST MEDICAL CENTER,2010 BROOKWOOD MEDICAL CENTER DRIVE,BIRMINGHAM,35209,JEFFERSON,AL,JEFFERSON_AL,2010 BROOKWOOD MEDICAL CENTER DRIVE BIRMINGHAM AL 35209,Hours of physical-restraint use,0.34,237.12,28906,Hours of seclusion use,0,0,28906,"Birmingham, AL, USA","33,530,651","-86,800,929",33.530651,-86.800929,76.2625,122.5,148.4,115.7063,7811.279908,3.667096925,Very Low,3.225738589,Very Low
10150,THE HEALTH CARE AUTHORITY OF THE CITY OF GREENVILLE- LV STABLER HOSPITAL,29 L V STABLER DRIVE,GREENVILLE,36037,BUTLER,AL,BUTLER_AL,29 L V STABLER DRIVE GREENVILLE AL 36037,Hours of physical-restraint use,0,0,3194,Hours of seclusion use,0,0,3194,"Greenville, AL, USA","31,828,269","-86,631,597",31.828269,-86.631597,94.41228,140.3421,165.0263,133.3947,692.0822529,1.634811032,Very Low,2.07312673,Very Low
10157,SHOALS HOSPITAL,201 WEST AVALON AVENUE,MUSCLE SHOALS,35661,COLBERT,AL,COLBERT_AL,201 WEST AVALON AVENUE MUSCLE SHOALS AL 35661,Hours of physical-restraint use,0,0,3908,Hours of seclusion use,0,0,3908,"201 West Avalon Avenue, Muscle Shoals, AL, USA","34,747,388","-87,676,528",34.747388,-87.676528,68.64211,115.5263,141.4421,109.5368,2048.770294,2.347358443,Very Low,2.07870089,Very Low
10164,COOSA VALLEY MEDICAL CENTER,315 W HICKORY ST,SYLACAUGA,35150,TALLADEGA,AL,TALLADEGA_AL,315 W HICKORY ST SYLACAUGA AL 35150,Hours of physical-restraint use,0,0,2140,Hours of seclusion use,0,0,2140,"315 West Hickory Street, Sylacauga, AL, USA","33,164,603","-86,254,924",33.164603,-86.254924,78.36364,125.1636,151.2364,118.4273,5387.735063,3.240040205,Very Low,3.045139043,Very Low
14000,HILL CREST BEHAVIORAL HEALTH SERVICES,6869 FIFTH AVENUE SOUTH,BIRMINGHAM,35212,JEFFERSON,AL,JEFFERSON_AL,6869 FIFTH AVENUE SOUTH BIRMINGHAM AL 35212,Hours of physical-restraint use,0.03,14.85,20878,Hours of seclusion use,0,0,20878,"Birmingham, AL, USA","33,530,651","-86,800,929",33.530651,-86.800929,76.2625,122.5,148.4,115.7063,7811.279908,3.667096925,Very Low,3.225738589,Very Low
14006,MOUNTAIN VIEW HOSPITAL,3201 SCENIC HIGHWAY,GADSDEN,35902,ETOWAH,AL,ETOWAH_AL,3201 SCENIC HIGHWAY GADSDEN AL 35902,Hours of physical-restraint use,0.07,9.85,6090,Hours of seclusion use,0,0,6090,"Scenic Highway, Gadsden, AL, USA","34,066,316","-86,023,072",34.066316,-86.023072,63.375,112.65,140.1,106.0125,2287.79338,2.435308148,Very Low,2.439763711,Very Low
14007,BRYCE HOSPITAL,200 UNIVERSITY BLVD,TUSCALOOSA,35401,TUSCALOOSA,AL,TUSCALOOSA_AL,200 UNIVERSITY BLVD TUSCALOOSA AL 35401,Hours of physical-restraint use,0.22,150.91,29063,Hours of seclusion use,0.03,22.65,29063,"University Blvd, Tuscaloosa, AL, USA","33,210,493","-87,566,225",33.210493,-87.566225,83.51309,127.9162,152.4974,121.2199,7819.260207,3.668345315,Very Low,2.823324869,Very Low
14012,MARY S HARPER GERIATRIC PSYCHIATRY CENTER,201 UNIVERSITY BLVD,TUSCALOOSA,35401,TUSCALOOSA,AL,TUSCALOOSA_AL,201 UNIVERSITY BLVD TUSCALOOSA AL 35401,Hours of physical-restraint use,0,1.14,29807,Hours of seclusion use,0.02,14.12,29807,"University Blvd, Tuscaloosa, AL, USA","33,210,493","-87,566,225",33.210493,-87.566225,83.51309,127.9162,152.4974,121.2199,7819.260207,3.668345315,Very Low,2.823324869,Very Low
14014,BAYPOINTE BEHAVIORAL HEALTH,5800 SOUTHLAND DRIVE,MOBILE,36693,MOBILE,AL,MOBILE_AL,5800 SOUTHLAND DRIVE MOBILE AL 36693,Hours of physical-restraint use,0.14,53.24,16357,Hours of seclusion use,0.13,51,16357,"5800 Southland Dr, Mobile, AL, USA","30,624,781","-88,177,874",30.624781,-88.177874,93.23563,140.7644,165.546,133.931,2749049.306,25.89062286,Relatively Moderate,23.79001515,Relatively Moderate
14015,BEACON CHILDREN'S HOSPITAL,150 HOSPITAL DRIVE,LUVERNE,36049,CRENSHAW,AL,CRENSHAW_AL,150 HOSPITAL DRIVE LUVERNE AL 36049,Hours of physical-restraint use,0.07,9.6,5819,Hours of seclusion use,0.08,10.5,5819,"Luverne, AL, USA","31,710,674","-86,261,664",31.710674,-86.261664,92.34737,138.4421,163.6737,131.621,1185.478142,1.956047991,Very Low,1.687018239,Very Low
14016,"SANCTUARY AT THE WOODLANDS, THE","1910 CHEROKEE AVENUE, SW",CULLMAN,35055,CULLMAN,AL,CULLMAN_AL,"1910 CHEROKEE AVENUE, SW CULLMAN AL 35055",Hours of physical-restraint use,0,0,1423,Hours of seclusion use,0,0,1423,"1910 Cherokee Avenue Southwest, Cullman, AL, USA","34,150,932","-86,846,112",34.150932,-86.846112,62.26316,112.5263,140.3596,105.5789,2450.719744,2.491798224,Very Low,2.07252748,Very Low
14017,EASTPOINTE HOSPITAL,7400 ROPER LANE,DAPHNE,36526,BALDWIN,AL,BALDWIN_AL,7400 ROPER LANE DAPHNE AL 36526,Hours of physical-restraint use,0.03,9.02,14443,Hours of seclusion use,1.06,366.4,14443,"7400 Roper Lane, Daphne, AL, USA","30,635,294","-87,895,223",30.635294,-87.895223,95.75641,141.6154,166.2308,135.0299,1195503.845,19.61546681,Relatively Moderate,16.50134966,Relatively Moderate
14018,UNITY PSYCHIATRIC CARE - HUNTSVILLE,"5315 MILLENIUM DRIVE, NW",HUNTSVILLE,35806,MADISON,AL,MADISON_AL,"5315 MILLENIUM DRIVE, NW HUNTSVILLE AL 35806",Hours of physical-restraint use,0,0,2499,Hours of seclusion use,0,0,2499,"Huntsville, AL, USA","34,756,007","-86,616,034",34.756007,-86.616034,56.525,106.9333,135.4833,100.2333,1941.565225,2.305679742,Very Low,1.378789015,Very Low
20008,BARTLETT REGIONAL HOSPITAL,3260 HOSPITAL DR,JUNEAU,99801,JUNEAU,AK,JUNEAU_AK,3260 HOSPITAL DR JUNEAU AK 99801,Hours of physical-restraint use,0.01,0.31,2330,Hours of seclusion use,1.66,92.58,2330,"3260 Hospital Drive, Juneau, AK, USA","5,832,887","-134,464,581",58.32887,-134.464581,#N/A,#N/A,#N/A,#N/A,0,0,Insufficient Data,0,Insufficient Data
24001,NORTH STAR HOSPITAL,2530 DEBARR RD,ANCHORAGE,99508,ANCHORAGE,AK,ANCHORAGE_AK,2530 DEBARR RD ANCHORAGE AK 99508,Hours of physical-restraint use,0.1,63.65,25752,Hours of seclusion use,0.15,94.17,25752,"2530 Debarr Rd, Anchorage, AK, USA","61,208,157","-149,833,801",61.208157,-149.833801,#N/A,#N/A,#N/A,#N/A,0,0,Insufficient Data,0,Insufficient Data
24002,ALASKA PSYCHIATRIC INSTITUTE,3700 PIPER STREET,ANCHORAGE,99508,ANCHORAGE,AK,ANCHORAGE_AK,3700 PIPER STREET ANCHORAGE AK 99508,Hours of physical-restraint use,0.14,57.9,17720,Hours of seclusion use,0.39,167.12,17720,"3700 Piper St, Anchorage, AK, USA","61,185,526","-149,829,488",61.185526,-149.829488,#N/A,#N/A,#N/A,#N/A,0,0,Insufficient Data,0,Insufficient Data
30002,BANNER - UNIVERSITY MEDICAL CENTER PHOENIX,1111 EAST MCDOWELL ROAD,PHOENIX,85006,MARICOPA,AZ,MARICOPA_AZ,1111 EAST MCDOWELL ROAD PHOENIX AZ 85006,Hours of physical-restraint use,0.07,11.98,6882,Hours of seclusion use,0.01,1.25,6882,"1111 East McDowell Road, Phoenix, AZ, USA","334,648","-11,205,847",33.4648,-112.05847,124.3175,157.1606,171.3447,151.6629,12285488.31,42.64608124,Relatively High,41.92499135,Relatively High
30006,TUCSON MEDICAL CENTER,5301 EAST GRANT ROAD,TUCSON,85712,PIMA,AZ,PIMA_AZ,5301 EAST GRANT ROAD TUCSON AZ 85712,Hours of physical-restraint use,0,0,3062,Hours of seclusion use,0,0,3062,"5301 East Grant Road, Tucson, AZ, USA","32,252,535","-110,877,516",32.252535,-110.877516,105.0228,143.895,165.3554,137.446,15729410.06,46.30762065,Relatively High,56.4766309,Very High
30010,ST. MARY'S HOSPITAL,1601 WEST ST MARY'S ROAD,TUCSON,85745,PIMA,AZ,PIMA_AZ,1601 WEST ST MARY'S ROAD TUCSON AZ 85745,Hours of physical-restraint use,0,0,8904,Hours of seclusion use,0,0,8904,"Tucson, AZ, USA","3,219,709","-110,828,987",32.19709,-110.828987,105.0228,143.895,165.3554,137.446,15729410.06,46.30762065,Relatively High,56.4766309,Very High
30011,ST JOSEPH'S HOSPITAL,350 NORTH WILMOT ROAD,TUCSON,85711,PIMA,AZ,PIMA_AZ,350 NORTH WILMOT ROAD TUCSON AZ 85711,Hours of physical-restraint use,0.01,1.12,6245,Hours of seclusion use,0,0,6245,"350 North Wilmot Road, Tucson, AZ, USA","32,227,878","-11,085,474",32.227878,-110.85474,105.0228,143.895,165.3554,137.446,15729410.06,46.30762065,Relatively High,56.4766309,Very High
30022,VALLEYWISE HEALTH MEDICAL CENTER,2601 EAST ROOSEVELT STREET,PHOENIX,85008,MARICOPA,AZ,MARICOPA_AZ,2601 EAST ROOSEVELT STREET PHOENIX AZ 85008,Hours of physical-restraint use,1.74,4253.91,101857,Hours of seclusion use,0.42,1033.41,101857,"2601 East Roosevelt Street, Phoenix, AZ, USA","33,457,125","-11,202,694",33.457125,-112.02694,124.3175,157.1606,171.3447,151.6629,12285488.31,42.64608124,Relatively High,41.92499135,Relatively High
30023,FLAGSTAFF MEDICAL CENTER,1200 NORTH BEAVER STREET,FLAGSTAFF,86001,COCONINO,AZ,COCONINO_AZ,1200 NORTH BEAVER STREET FLAGSTAFF AZ 86001,Hours of physical-restraint use,0,0.05,3504,Hours of seclusion use,0,0,3504,"1200 N Beaver St, Flagstaff, AZ, USA","35,208,584","-111,645,088",35.208584,-111.645088,12.92054,47.80816,81.86328,39.99678,19290808.24,49.56766529,Relatively High,57.87205281,Very High
30037,ST LUKE'S MEDICAL CENTER,1800 EAST VAN BUREN STREET,PHOENIX,85006,MARICOPA,AZ,MARICOPA_AZ,1800 EAST VAN BUREN STREET PHOENIX AZ 85006,Hours of physical-restraint use,Not Available,Not Available,Not Available,Hours of seclusion use,Not Available,Not Available,Not Available,"1800 East Van Buren Street, Phoenix, AZ, USA","33,454,912","-112,042,777",33.454912,-112.042777,124.3175,157.1606,171.3447,151.6629,12285488.31,42.64608124,Relatively High,41.92499135,Relatively High
30043,CANYON VISTA MEDICAL CENTER,5700 EAST HIGHWAY 90,SIERRA VISTA,85635,COCHISE,AZ,COCHISE_AZ,5700 EAST HIGHWAY 90 SIERRA VISTA AZ 85635,Hours of physical-restraint use,0.07,6.55,4101,Hours of seclusion use,0.15,15.05,4101,"5700 East Highway 90, Sierra Vista, AZ, USA","31,553,219","-110,229,735",31.553219,-110.229735,34.23303,88.71832,125.4197,79.98982,2784541.195,26.00156797,Relatively Moderate,33.08529073,Relatively High
30062,SUMMIT HEALTHCARE REGIONAL MEDICAL CENTER,2200 EAST SHOW LOW LAKE ROAD,SHOW LOW,85901,NAVAJO,AZ,NAVAJO_AZ,2200 EAST SHOW LOW LAKE ROAD SHOW LOW AZ 85901,Hours of physical-restraint use,0.06,2.04,1421,Hours of seclusion use,0,0,1421,"2200 East Show Low Lake Road, Show Low, AZ, USA","34,202,889","-110,018,075",34.202889,-110.018075,7.380531,45.04288,84.43022,36.37032,12697925.32,43.11806323,Relatively High,74.83078287,Very High
30089,BANNER THUNDERBIRD MEDICAL CENTER,5555 WEST THUNDERBIRD ROAD,GLENDALE,85306,MARICOPA,AZ,MARICOPA_AZ,5555 WEST THUNDERBIRD ROAD GLENDALE AZ 85306,Hours of physical-restraint use,0.18,57.02,13148,Hours of seclusion use,0,0.92,13148,"5555 W Thunderbird Rd, Glendale, AZ, USA","33,609,189","-11,217,915",33.609189,-112.17915,124.3175,157.1606,171.3447,151.6629,12285488.31,42.64608124,Relatively High,41.92499135,Relatively High
30093,BANNER DEL E. WEBB MEDICAL CENTER,14502 WEST MEEKER BOULEVARD,SUN CITY WEST,85375,MARICOPA,AZ,MARICOPA_AZ,14502 WEST MEEKER BOULEVARD SUN CITY WEST AZ 85375,Hours of physical-restraint use,0.01,2.57,14521,Hours of seclusion use,0,0,14521,"14502 West Meeker Boulevard, Sun City West, AZ, USA","33,660,183","-112,372,098",33.660183,-112.372098,124.3175,157.1606,171.3447,151.6629,12285488.31,42.64608124,Relatively High,41.92499135,Relatively High
30111,BANNER-UNIVERSITY MEDICAL CENTER SOUTH CAMPUS,2800 EAST AJO WAY,TUCSON,85713,PIMA,AZ,PIMA_AZ,2800 EAST AJO WAY TUCSON AZ 85713,Hours of physical-restraint use,0,0.18,3340,Hours of seclusion use,0.01,0.63,3340,"2800 E Ajo Wy, Tucson, AZ, USA","32,175,798","-110,930,692",32.175798,-110.930692,105.0228,143.895,165.3554,137.446,15729410.06,46.30762065,Relatively High,56.4766309,Very High
30114,ORO VALLEY HOSPITAL,1551 EAST TANGERINE ROAD,ORO VALLEY,85755,PIMA,AZ,PIMA_AZ,1551 EAST TANGERINE ROAD ORO VALLEY AZ 85755,Hours of physical-restraint use,0,0,3277,Hours of seclusion use,0,0,3277,"1551 E Tangerine Rd, Oro Valley, AZ, USA","32,428,472","-11,094,935",32.428472,-110.94935,105.0228,143.895,165.3554,137.446,15729410.06,46.30762065,Relatively High,56.4766309,Very High
30121,"MOUNTAIN VISTA MEDICAL CENTER, LP",1301 SOUTH CRISMON ROAD,MESA,85209,MARICOPA,AZ,MARICOPA_AZ,1301 SOUTH CRISMON ROAD MESA AZ 85209,Hours of physical-restraint use,0.02,2.75,6191,Hours of seclusion use,0.01,1.17,6191,"1301 S Crismon Rd, Mesa, AZ, USA","33,391,285","-111,611,254",33.391285,-111.611254,124.3175,157.1606,171.3447,151.6629,12285488.31,42.64608124,Relatively High,41.92499135,Relatively High
34004,BANNER BEHAVIORAL HEALTH HOSPITAL,7575 EAST EARLL DRIVE,SCOTTSDALE,85251,MARICOPA,AZ,MARICOPA_AZ,7575 EAST EARLL DRIVE SCOTTSDALE AZ 85251,Hours of physical-restraint use,0.12,111.27,39204,Hours of seclusion use,0.09,87.82,39204,"7575 E Earll Dr, Scottsdale, AZ, USA","33,483,255","-111,918,122",33.483255,-111.918122,124.3175,157.1606,171.3447,151.6629,12285488.31,42.64608124,Relatively High,41.92499135,Relatively High
34013,"ST. LUKE'S BEHAVIORAL HOSPITAL, LP",1800 EAST VAN BUREN,PHOENIX,85006,MARICOPA,AZ,MARICOPA_AZ,1800 EAST VAN BUREN PHOENIX AZ 85006,Hours of physical-restraint use,0.08,74.38,36541,Hours of seclusion use,0.13,110.62,36541,"Phoenix, AZ, USA","3,360,503","-112,070,892",33.60503,-112.070892,124.3175,157.1606,171.3447,151.6629,12285488.31,42.64608124,Relatively High,41.92499135,Relatively High
34020,HAVEN BEHAVIORAL HOSPITAL OF PHOENIX,"1201 SOUTH 7TH AVENUE, SUITE 200",PHOENIX,85007,MARICOPA,AZ,MARICOPA_AZ,"1201 SOUTH 7TH AVENUE, SUITE 200 PHOENIX AZ 85007",Hours of physical-restraint use,0.01,3.05,8823,Hours of seclusion use,0,0.8,8823,"1201 S 7th Ave, Phoenix, AZ, USA","33,435,299","-112,081,503",33.435299,-112.081503,124.3175,157.1606,171.3447,151.6629,12285488.31,42.64608124,Relatively High,41.92499135,Relatively High
34021,ARIZONA STATE HOSPITAL,2500 EAST VAN BUREN STREET,PHOENIX,85008,MARICOPA,AZ,MARICOPA_AZ,2500 EAST VAN BUREN STREET PHOENIX AZ 85008,Hours of physical-restraint use,1.2,730.78,25348,Hours of seclusion use,0.52,316.39,25348,"2500 E Van Buren St, Phoenix, AZ, USA","33,452,592","-112,025,897",33.452592,-112.025897,124.3175,157.1606,171.3447,151.6629,12285488.31,42.64608124,Relatively High,41.92499135,Relatively High
34022,SONORA BEHAVIORAL HEALTH HOSPITAL,6050 NORTH CORONA ROAD,TUCSON,85704,PIMA,AZ,PIMA_AZ,6050 NORTH CORONA ROAD TUCSON AZ 85704,Hours of physical-restraint use,0.09,175.58,85564,Hours of seclusion use,0.13,273.13,85564,"Tucson, AZ, USA","3,219,709","-110,828,987",32.19709,-110.828987,105.0228,143.895,165.3554,137.446,15729410.06,46.30762065,Relatively High,56.4766309,Very High
34023,"GUIDANCE CENTER, THE",2187 NORTH VICKEY STREET,FLAGSTAFF,86004,COCONINO,AZ,COCONINO_AZ,2187 NORTH VICKEY STREET FLAGSTAFF AZ 86004,Hours of physical-restraint use,0,0,3622,Hours of seclusion use,1.08,94,3622,"2187 N Vickey St, Flagstaff, AZ, USA","35,206,581","-111,606,334",35.206581,-111.606334,12.92054,47.80816,81.86328,39.99678,19290808.24,49.56766529,Relatively High,57.87205281,Very High
34024,AURORA BEHAVIORAL HEALTH SYSTEM,6015 WEST PEORIA  AVENUE,GLENDALE,85302,MARICOPA,AZ,MARICOPA_AZ,6015 WEST PEORIA  AVENUE GLENDALE AZ 85302,Hours of physical-restraint use,0.01,7.52,30868,Hours of seclusion use,0,0,30868,"6015 W Peoria Ave, Glendale, AZ, USA","33,580,914","-11,218,928",33.580914,-112.18928,124.3175,157.1606,171.3447,151.6629,12285488.31,42.64608124,Relatively High,41.92499135,Relatively High
34025,WINDHAVEN PSYCHIATRIC HOSPITAL,3347 NORTH WINDSONG DRIVE,PRESCOTT VALLEY,86314,YAVAPAI,AZ,YAVAPAI_AZ,3347 NORTH WINDSONG DRIVE PRESCOTT VALLEY AZ 86314,Hours of physical-restraint use,0.03,3.4,4165,Hours of seclusion use,0,0,4165,"3347 N Windsong Dr, Prescott Valley, AZ, USA","34,591,127","-112,326,282",34.591127,-112.326282,31.88494,77.27326,111.5076,67.81303,16767536.1,47.3047486,Relatively High,63.95754611,Very High
34026,VALLEY HOSPITAL,3550 EAST PINCHOT AVENUE,PHOENIX,85018,MARICOPA,AZ,MARICOPA_AZ,3550 EAST PINCHOT AVENUE PHOENIX AZ 85018,Hours of physical-restraint use,0,4.32,40861,Hours of seclusion use,0,0,40861,"3550 East Pinchot Avenue, Phoenix, AZ, USA","3,348,292","-112,005,459",33.48292,-112.005459,124.3175,157.1606,171.3447,151.6629,12285488.31,42.64608124,Relatively High,41.92499135,Relatively High
34027,CHANGEPOINT PSYCHIATRIC HOSPITAL,1920 WEST COMMERCE DRIVE,LAKESIDE,85929,NAVAJO,AZ,NAVAJO_AZ,1920 WEST COMMERCE DRIVE LAKESIDE AZ 85929,Hours of physical-restraint use,0.02,1.75,3773,Hours of seclusion use,0.02,1.5,3773,"West Commerce Drive, Tempe, AZ, USA","33,336,826","-11,196,517",33.336826,-111.96517,7.380531,45.04288,84.43022,36.37032,12697925.32,43.11806323,Relatively High,74.83078287,Very High
34028,AURORA BEHAVIORAL HEALTHCARE-TEMPE,6350 SOUTH MAPLE AVENUE,TEMPE,85283,MARICOPA,AZ,MARICOPA_AZ,6350 SOUTH MAPLE AVENUE TEMPE AZ 85283,Hours of physical-restraint use,0.07,61.77,37291,Hours of seclusion use,0,0,37291,"6350 South Maple Avenue, Tempe, AZ, USA","33,364,205","-111,939,296",33.364205,-111.939296,124.3175,157.1606,171.3447,151.6629,12285488.31,42.64608124,Relatively High,41.92499135,Relatively High
34029,OASIS BEHAVIORAL HEALTH HOSPITAL,"2190 NORTH GRACE BOULEVARD, BUILDING A",CHANDLER,85225,MARICOPA,AZ,MARICOPA_AZ,"2190 NORTH GRACE BOULEVARD, BUILDING A CHANDLER AZ 85225",Hours of physical-restraint use,0.05,87.15,78421,Hours of seclusion use,0.1,192.75,78421,"2190 N Grace Blvd, Chandler, AZ, USA","33,339,981","-11,184,745",33.339981,-111.84745,124.3175,157.1606,171.3447,151.6629,12285488.31,42.64608124,Relatively High,41.92499135,Relatively High
34030,PALO VERDE BEHAVIORAL HEALTH,2695 NORTH CRAYCROFT ROAD,TUCSON,85712,PIMA,AZ,PIMA_AZ,2695 NORTH CRAYCROFT ROAD TUCSON AZ 85712,Hours of physical-restraint use,0.06,31.85,23511,Hours of seclusion use,0.01,4.51,23511,"2695 N Craycroft Rd, Tucson, AZ, USA","32,255,987","-110,876,293",32.255987,-110.876293,105.0228,143.895,165.3554,137.446,15729410.06,46.30762065,Relatively High,56.4766309,Very High
34031,QUAIL RUN BEHAVIORAL HEALTH,2545 WEST QUAIL AVENUE,PHOENIX,85027,MARICOPA,AZ,MARICOPA_AZ,2545 WEST QUAIL AVENUE PHOENIX AZ 85027,Hours of physical-restraint use,0.07,48.13,30521,Hours of seclusion use,0.01,9.32,30521,"2545 W Quail Ave, Phoenix, AZ, USA","33,677,526","-112,113,818",33.677526,-112.113818,124.3175,157.1606,171.3447,151.6629,12285488.31,42.64608124,Relatively High,41.92499135,Relatively High
34032,COPPER SPRINGS EAST- GILBERT,10550 WEST MCDOWELL ROAD,AVONDALE,85392,MARICOPA,AZ,MARICOPA_AZ,10550 WEST MCDOWELL ROAD AVONDALE AZ 85392,Hours of physical-restraint use,0,0.75,30117,Hours of seclusion use,0,0.42,30117,"Avondale, AZ, USA","33,301,136","-112,331,817",33.301136,-112.331817,124.3175,157.1606,171.3447,151.6629,12285488.31,42.64608124,Relatively High,41.92499135,Relatively High
34033,CORNERSTONE BEHAVIORAL HEALTH EL DORADO,1400 NORTH WILMOT ROAD,TUCSON,85712,PIMA,AZ,PIMA_AZ,1400 NORTH WILMOT ROAD TUCSON AZ 85712,Hours of physical-restraint use,0,1.42,13105,Hours of seclusion use,0,0,13105,"1400 North Wilmot Road, Tucson, AZ, USA","32,240,327","-11,085,589",32.240327,-110.85589,105.0228,143.895,165.3554,137.446,15729410.06,46.30762065,Relatively High,56.4766309,Very High
34034,DESTINY SPRINGS HEALTHCARE,17300 NORTH DYSART ROAD,SURPRISE,85378,MARICOPA,AZ,MARICOPA_AZ,17300 NORTH DYSART ROAD SURPRISE AZ 85378,Hours of physical-restraint use,0.01,7.58,21973,Hours of seclusion use,0.06,32.67,21973,"North Dysart Road, Surprise, AZ, USA","33,636,874","-112,342,118",33.636874,-112.342118,124.3175,157.1606,171.3447,151.6629,12285488.31,42.64608124,Relatively High,41.92499135,Relatively High
34035,AVENIR BEHAVIORAL HEALTH CENTER,16561 NORTH PARKVIEW PLACE,SURPRISE,85374,MARICOPA,AZ,MARICOPA_AZ,16561 NORTH PARKVIEW PLACE SURPRISE AZ 85374,Hours of physical-restraint use,0,0.03,2091,Hours of seclusion use,0,0,2091,"North Parkview Place, Surprise, AZ, USA","33,624,516","-112,385,262",33.624516,-112.385262,124.3175,157.1606,171.3447,151.6629,12285488.31,42.64608124,Relatively High,41.92499135,Relatively High
40002,JOHNSON REGIONAL MEDICAL CENTER,1100 EAST POPLAR STREET,CLARKSVILLE,72830,JOHNSON,AR,JOHNSON_AR,1100 EAST POPLAR STREET CLARKSVILLE AR 72830,Hours of physical-restraint use,0,0,1952,Hours of seclusion use,0.26,11.98,1952,"1100 East Poplar Street, Clarksville, AR, USA","35,461,596","-93,444,849",35.461596,-93.444849,59.71429,103.4762,131.8286,97.78095,10410.15061,4.035530739,Very Low,4.017427696,Very Low
40007,CHI-ST VINCENT INFIRMARY,TWO ST VINCENT CIRCLE,LITTLE ROCK,72205,PULASKI,AR,PULASKI_AR,TWO ST VINCENT CIRCLE LITTLE ROCK AR 72205,Hours of physical-restraint use,0,0,775,Hours of seclusion use,0,0,775,"Little Rock, AR, USA","34,713,561","-92,355,844",34.713561,-92.355844,81.24138,122.7845,147.4569,116.7759,4578.729846,3.068998401,Very Low,2.691542576,Very Low
40011,CHAMBERS MEMORIAL HOSPITAL,719 DETROIT STREET,DANVILLE,72833,YELL,AR,YELL_AR,719 DETROIT STREET DANVILLE AR 72833,Hours of physical-restraint use,0,0,2312,Hours of seclusion use,0,0,2312,"719 Detroit Street, Danville, AR, USA","35,054,759","-93,387,698",35.054759,-93.387698,81.38095,121.4354,146.5238,115.381,12481.91665,4.287216494,Very Low,5.149965812,Very Low
40014,WHITE COUNTY MEDICAL CENTER,3214 EAST RACE AVENUE,SEARCY,72143,WHITE,AR,WHITE_AR,3214 EAST RACE AVENUE SEARCY AR 72143,Hours of physical-restraint use,0.01,1.39,4478,Hours of seclusion use,0.04,4.23,4478,"3214 E Race Ave, Searcy, AR, USA","35,251,295","-91,697,911",35.251295,-91.697911,75.61184,118.3487,143.1316,112.5197,8365.78212,3.751893528,Very Low,3.11208446,Very Low
40015,MENA REGIONAL HEALTH SYSTEM,311 NORTH MORROW STREET,MENA,71953,POLK,AR,POLK_AR,311 NORTH MORROW STREET MENA AR 71953,Hours of physical-restraint use,0.24,6.95,1226,Hours of seclusion use,0.75,22.13,1226,"311 North Morrow Street, Mena, AR, USA","34,589,105","-94,221,597",34.589105,-94.221597,69.29921,113.6142,141.4803,107.5748,42427.61253,6.446112096,Relatively Low,8.212791297,Relatively Low
40017,NORTH ARKANSAS REGIONAL MEDICAL CENTER,620 NORTH MAIN STREET,HARRISON,72601,BOONE,AR,BOONE_AR,620 NORTH MAIN STREET HARRISON AR 72601,Hours of physical-restraint use,0,0,2044,Hours of seclusion use,0,0,2044,"North Main Street, Harrison, AR, USA","36,241,458","-93,110,159",36.241458,-93.110159,48.51111,94.63333,124.0333,89.03333,34694.40571,6.027929158,Relatively Low,6.13749717,Relatively Low
40019,FORREST CITY MEDICAL CENTER,1601 NEWCASTLE ROAD,FORREST CITY,72335,ST.FRANCIS,AR,ST.FRANCIS_AR,1601 NEWCASTLE ROAD FORREST CITY AR 72335,Hours of physical-restraint use,0,0,412,Hours of seclusion use,0,0,412,"1601 Newcastle Road, Forrest City, AR, USA","35,039,305","-90,775,641",35.039305,-90.775641,77.41,121.58,144.58,115.77,29.50558964,0.571105604,Very Low,0.570849984,Very Low
40020,ST BERNARDS MEDICAL CENTER,225 E WASHIINGTON AVENUE,JONESBORO,72401,CRAIGHEAD,AR,CRAIGHEAD_AR,225 E WASHIINGTON AVENUE JONESBORO AR 72401,Hours of physical-restraint use,0,0,3027,Hours of seclusion use,0,0,3027,"Jonesboro, AR, USA","3,582,477","-90,693,517",35.82477,-90.693517,72.97414,116.9828,140.2672,111.4483,150.7872259,0.983716236,Very Low,0.871012183,Very Low
40026,ST VINCENT HOT SPRINGS,300 WERNER STREET,HOT SPRINGS,71903,GARLAND,AR,GARLAND_AR,300 WERNER STREET HOT SPRINGS AR 71903,Hours of physical-restraint use,0,0,385,Hours of seclusion use,0,0,385,"300 Werner Street, Hot Springs, AR, USA","34,467,404","-93,067,092",34.467404,-93.067092,79.2844,120.8257,146.5505,114.6147,13891.30162,4.442860077,Very Low,5.372731402,Very Low
40027,BAXTER REGIONAL MEDICAL CENTER,624 HOSPITAL DRIVE,MOUNTAIN HOME,72653,BAXTER,AR,BAXTER_AR,624 HOSPITAL DRIVE MOUNTAIN HOME AR 72653,Hours of physical-restraint use,0,0,3447,Hours of seclusion use,0,0,3447,"624 Hospital Dr, Mountain Home, AR, USA","36,342,981","-92,395,855",36.342981,-92.395855,56.8375,101.7125,129.325,96.0875,16206.15373,4.677081886,Very Low,6.671936578,Relatively Low
40029,CONWAY REGIONAL HEALTH SYSTEM,2302 COLLEGE AVENUE,CONWAY,72034,FAULKNER,AR,FAULKNER_AR,2302 COLLEGE AVENUE CONWAY AR 72034,Hours of physical-restraint use,Not Available,Not Available,Not Available,Hours of seclusion use,Not Available,Not Available,Not Available,"2302 College Ave, Conway, AR, USA","350,858","-92,457,811",35.0858,-92.457811,78.27368,119.5263,144.8105,113.6421,13547.85692,4.405939431,Very Low,2.918219713,Very Low
40047,FIVE RIVERS MEDICAL CENTER,2801 MEDICAL CENTER DRIVE,POCAHONTAS,72455,RANDOLPH,AR,RANDOLPH_AR,2801 MEDICAL CENTER DRIVE POCAHONTAS AR 72455,Hours of physical-restraint use,0,0,1915,Hours of seclusion use,0.02,1,1915,"2801 Medical Center Dr, Pocahontas, AR, USA","36,289,775","-90,997,322",36.289775,-90.997322,66.65263,111.1053,135.4316,105.5579,10440.68677,4.039472704,Very Low,4.795100889,Very Low
40051,DREW MEMORIAL HOSPITAL,778 SCOGIN DRIVE,MONTICELLO,71655,DREW,AR,DREW_AR,778 SCOGIN DRIVE MONTICELLO AR 71655,Hours of physical-restraint use,0,0,563,Hours of seclusion use,0,0,563,"778 Scogin Dr, Monticello, AR, USA","33,610,773","-91,816,455",33.610773,-91.816455,91.125,133.4583,155.8417,127.3583,1377.395994,2.056370006,Very Low,2.054138038,Very Low
40055,BAPTIST HEALTH - FORT SMITH,1001 TOWSON AVENUE,FORT SMITH,72901,SEBASTIAN,AR,SEBASTIAN_AR,1001 TOWSON AVENUE FORT SMITH AR 72901,Hours of physical-restraint use,0,0,1803,Hours of seclusion use,0,0,1803,"1001 Towson Avenue, Fort Smith, AR, USA","353,746","-94,419,467",35.3746,-94.419467,82.375,122.7375,147.4875,116.75,377001.3382,13.3514762,Relatively Low,13.54228581,Relatively Low
40071,JEFFERSON REGIONAL MEDICAL CENTER,1600 WEST 40TH AVENUE,PINE BLUFF,71603,JEFFERSON,AR,JEFFERSON_AR,1600 WEST 40TH AVENUE PINE BLUFF AR 71603,Hours of physical-restraint use,0,0,4756,Hours of seclusion use,0,0,4756,"West 40th Avenue, Pine Bluff, AR, USA","34,187,711","-92,030,463",34.187711,-92.030463,84.30469,126.8438,150.3203,120.5938,357.3422362,1.311524594,Very Low,1.343729961,Very Low
40078,NATIONAL PARK MEDICAL CENTER,1910 MALVERN AVENUE,HOT SPRINGS,71901,GARLAND,AR,GARLAND_AR,1910 MALVERN AVENUE HOT SPRINGS AR 71901,Hours of physical-restraint use,0,0,3730,Hours of seclusion use,0,0,3730,"1910 Malvern Ave, Hot Springs, AR, USA","34,486,125","-93,035,559",34.486125,-93.035559,79.2844,120.8257,146.5505,114.6147,13891.30162,4.442860077,Very Low,5.372731402,Very Low
40084,SALINE MEMORIAL HOSPITAL,#1 MEDICAL PARK DRIVE,BENTON,72015,SALINE,AR,SALINE_AR,#1 MEDICAL PARK DRIVE BENTON AR 72015,Hours of physical-restraint use,0,0,3099,Hours of seclusion use,0.84,62.18,3099,"1 Medical Park Drive, Benton, AR, USA","34,573,507","-92,585,803",34.573507,-92.585803,81.41284,123.4587,148.7248,117.2752,12793.75458,4.322625993,Very Low,3.047538555,Very Low
40114,BAPTIST HEALTH MEDICAL CENTER-LITTLE ROCK,9601 INTERSTATE,LITTLE ROCK,72205,PULASKI,AR,PULASKI_AR,9601 INTERSTATE LITTLE ROCK AR 72205,Hours of physical-restraint use,0,0,2304,Hours of seclusion use,0,0,2304,"Little Rock, AR, USA","34,713,561","-92,355,844",34.713561,-92.355844,81.24138,122.7845,147.4569,116.7759,4578.729846,3.068998401,Very Low,2.691542576,Very Low
40119,WHITE RIVER MEDICAL CENTER,1710 HARRISON STREET,BATESVILLE,72503,INDEPENDENCE,AR,INDEPENDENCE_AR,1710 HARRISON STREET BATESVILLE AR 72503,Hours of physical-restraint use,0.04,2.33,2490,Hours of seclusion use,0.26,15.5,2490,"1710 Harrison Street, Batesville, AR, USA","35,767,887","-916,344",35.767887,-91.6344,68.35294,111.8655,137.3277,106.1933,17291.17109,4.779213788,Very Low,4.762655506,Very Low
40132,LEVI HOSPITAL,300 PROSPECT AVE,HOT SPRINGS,71901,GARLAND,AR,GARLAND_AR,300 PROSPECT AVE HOT SPRINGS AR 71901,Hours of physical-restraint use,0.21,29.35,5705,Hours of seclusion use,0.05,7.25,5705,"300 Prospect Avenue, Hot Springs, AR, USA","34,510,052","-93,057,112",34.510052,-93.057112,79.2844,120.8257,146.5505,114.6147,13891.30162,4.442860077,Very Low,5.372731402,Very Low
40153,WADLEY REGIONAL MEDICAL CENTER AT HOPE,2001 SOUTH MAIN,HOPE,71801,HEMPSTEAD,AR,HEMPSTEAD_AR,2001 SOUTH MAIN HOPE AR 71801,Hours of physical-restraint use,0,0,2609,Hours of seclusion use,0,0,2609,"Hope, AR, USA","33,671,831","-93,599,146",33.671831,-93.599146,89.53846,131.7778,155.3419,125.7179,6684.08409,3.48146706,Very Low,4.304424903,Very Low
41302,DARDANELLE HOSPITAL,200 NORTH THIRD STREET,DARDANELLE,72834,YELL,AR,YELL_AR,200 NORTH THIRD STREET DARDANELLE AR 72834,Hours of physical-restraint use,0,0,1962,Hours of seclusion use,0,0,1962,"Dardanelle, AR, USA","35,226,021","-93,163,228",35.226021,-93.163228,81.38095,121.4354,146.5238,115.381,12481.91665,4.287216494,Very Low,5.149965812,Very Low
41323,ASHLEY COUNTY MEDICAL CENTER,1015 UNITY ROAD,CROSSETT,71635,ASHLEY,AR,ASHLEY_AR,1015 UNITY ROAD CROSSETT AR 71635,Hours of physical-restraint use,0,0,406,Hours of seclusion use,0,0,406,"Crossett, AR, USA","33,128,643","-91,965,038",33.128643,-91.965038,96.18182,137.5152,159.5303,131.5682,5423.458017,3.24718538,Very Low,3.077494107,Very Low
41327,BRADLEY COUNTY MEDICAL CENTER,404 SOUTH BRADLEY STREET,WARREN,71671,BRADLEY,AR,BRADLEY_AR,404 SOUTH BRADLEY STREET WARREN AR 71671,Hours of physical-restraint use,0,0,670,Hours of seclusion use,0,0,670,"404 South Bradley Street, Warren, AR, USA","33,610,747","-92,059,583",33.610747,-92.059583,92.19608,133.8627,156.451,127.7549,2033.989926,2.341699993,Very Low,2.852518595,Very Low
44004,VISTA HEALTH FAYETTEVILLE,4253 CROSSOVER ROAD,FAYETTEVILLE,72703,WASHINGTON,AR,WASHINGTON_AR,4253 CROSSOVER ROAD FAYETTEVILLE AR 72703,Hours of physical-restraint use,0.06,42.87,30546,Hours of seclusion use,0.11,82.53,30546,"Fayetteville, AR, USA","36,072,575","-94,157,671",36.072575,-94.157671,50.18571,96.98572,125.95,91.36429,914129.6654,17.93704605,Relatively Moderate,14.92345634,Relatively Moderate
44005,BRIDGEWAY HOSPITAL,21 BRIDGEWAY ROAD,NORTH LITTLE ROCK,72113,PULASKI,AR,PULASKI_AR,21 BRIDGEWAY ROAD NORTH LITTLE ROCK AR 72113,Hours of physical-restraint use,0.05,25,22372,Hours of seclusion use,0.12,63.62,22372,"21 Bridgeway Rd, North Little Rock, AR, USA","34,822,035","-92,354,602",34.822035,-92.354602,81.24138,122.7845,147.4569,116.7759,4578.729846,3.068998401,Very Low,2.691542576,Very Low
44006,VALLEY BEHAVIORAL HEALTH SYSTEM,10301 MAYO DRIVE,BARLING,72923,SEBASTIAN,AR,SEBASTIAN_AR,10301 MAYO DRIVE BARLING AR 72923,Hours of physical-restraint use,0.01,109.95,609456,Hours of seclusion use,0,57.68,609456,"Barling, AR, USA","35,324,533","-94,274,472",35.324533,-94.274472,82.375,122.7375,147.4875,116.75,377001.3382,13.3514762,Relatively Low,13.54228581,Relatively Low
44007,RIVENDELL BEHAVIORAL HEALTH SERVICES,100 RIVENDELL DRIVE,BENTON,72019,SALINE,AR,SALINE_AR,100 RIVENDELL DRIVE BENTON AR 72019,Hours of physical-restraint use,0.05,18.93,17274,Hours of seclusion use,0,0,17274,"Benton, AR, USA","34,570,163","-9,258,135",34.570163,-92.58135,81.41284,123.4587,148.7248,117.2752,12793.75458,4.322625993,Very Low,3.047538555,Very Low
44011,ARKANSAS STATE HOSPITAL,305 S PALM STREET,LITTLE ROCK,72205,PULASKI,AR,PULASKI_AR,305 S PALM STREET LITTLE ROCK AR 72205,Hours of physical-restraint use,0.25,405.87,67151,Hours of seclusion use,0.05,81.72,67151,"305 S Palm St, Little Rock, AR, USA","34,749,881","-92,324,538",34.749881,-92.324538,81.24138,122.7845,147.4569,116.7759,4578.729846,3.068998401,Very Low,2.691542576,Very Low
44017,UNITED METHODIST BEHAVIORAL HOSPITAL,1601 MURPHY DRIVE,MAUMELLE,72113,PULASKI,AR,PULASKI_AR,1601 MURPHY DRIVE MAUMELLE AR 72113,Hours of physical-restraint use,0.1,24.3,10598,Hours of seclusion use,0.1,25.25,10598,"1601 Murphy Dr, Maumelle, AR, USA","34,876,594","-92,394,717",34.876594,-92.394717,81.24138,122.7845,147.4569,116.7759,4578.729846,3.068998401,Very Low,2.691542576,Very Low
44019,SPRINGWOODS BEHAVIORAL HEALTH SERVICES,1955 WEST TRUCKER'S DRIVE,FAYETTEVILLE,72704,WASHINGTON,AR,WASHINGTON_AR,1955 WEST TRUCKER'S DRIVE FAYETTEVILLE AR 72704,Hours of physical-restraint use,0.15,51.48,13848,Hours of seclusion use,0.02,7.48,13848,"1955 W Truckers Dr, Fayetteville, AR, USA","36,108,496","-94,186,883",36.108496,-94.186883,50.18571,96.98572,125.95,91.36429,914129.6654,17.93704605,Relatively Moderate,14.92345634,Relatively Moderate
44020,RIVERVIEW BEHAVIORAL HEALTH,701 ARKANSAS BOULEVARD SUITE 300,TEXARKANA,71854,MILLER,AR,MILLER_AR,701 ARKANSAS BOULEVARD SUITE 300 TEXARKANA AR 71854,Hours of physical-restraint use,0.06,18.62,13236,Hours of seclusion use,0.13,41.4,13236,"701 Arkansas Boulevard, Texarkana, AR, USA","3,346,115","-9,403,421",33.46115,-94.03421,96.82105,137.7789,159.9263,132.1895,14757.3968,4.533339458,Very Low,4.402927654,Very Low
44021,PERIMETER BEHAVIORAL HOSPITAL WEST MEMPHIS,600 NORTH 7TH STREET,WEST MEMPHIS,72301,CRITTENDEN,AR,CRITTENDEN_AR,600 NORTH 7TH STREET WEST MEMPHIS AR 72301,Hours of physical-restraint use,0.17,21.66,5442,Hours of seclusion use,0,0.26,5442,"North 7th Street, West Memphis, AR, USA","3,516,505","-90,175,889",35.16505,-90.175889,77.41237,121.7423,144.2887,115.9381,0.011160605,0.041302617,Very Low,0.044564581,Very Low
44022,CONWAY BEHAVIORAL HEALTH,2255 STURGIS ROAD,CONWAY,72034,FAULKNER,AR,FAULKNER_AR,2255 STURGIS ROAD CONWAY AR 72034,Hours of physical-restraint use,0,47.43,494088,Hours of seclusion use,0,47.2,494088,"Conway, AR, USA","35,086,096","-92,453,883",35.086096,-92.453883,78.27368,119.5263,144.8105,113.6421,13547.85692,4.405939431,Very Low,2.918219713,Very Low
50007,PENINSULA MEDICAL CENTER,1501 TROUSDALE DRIVE,BURLINGAME,94010,SANMATEO,CA,SANMATEO_CA,1501 TROUSDALE DRIVE BURLINGAME CA 94010,Hours of physical-restraint use,0.22,59.03,11069,Hours of seclusion use,0.44,117.62,11069,"1501 Trousdale Drive, Burlingame, CA, USA","37,592,363","-12,238,244",37.592363,-122.38244,2.95082,11.65574,26.86885,8.459017,4511177.261,30.53830674,Relatively High,16.47091083,Relatively Moderate
50024,PARADISE VALLEY HOSPITAL,2400 EAST 4TH ST,NATIONAL CITY,91950,SANDIEGO,CA,SANDIEGO_CA,2400 EAST 4TH ST NATIONAL CITY CA 91950,Hours of physical-restraint use,0,0,10225,Hours of seclusion use,0,0,10225,"2400 East 4th Street, National City, CA, USA","32,685,594","-117,082,183",32.685594,-117.082183,42.0626,79.60835,108.8491,71.03049,158399947.6,100,Very High,83.83057274,Very High
50025,UC SAN DIEGO HEALTH HILLCREST - HILLCREST MED CTR,200 WEST ARBOR DRIVE,SAN DIEGO,92103,SANDIEGO,CA,SANDIEGO_CA,200 WEST ARBOR DRIVE SAN DIEGO CA 92103,Hours of physical-restraint use,0.12,23.92,8350,Hours of seclusion use,0.17,33.17,8350,"200 West Arbor Drive, San Diego, CA, USA","32,755,082","-117,165,577",32.755082,-117.165577,42.0626,79.60835,108.8491,71.03049,158399947.6,100,Very High,83.83057274,Very High
50026,GROSSMONT HOSPITAL,5555 GROSSMONT CENTER DRIVE BOX 58,LA MESA,91942,SANDIEGO,CA,SANDIEGO_CA,5555 GROSSMONT CENTER DRIVE BOX 58 LA MESA CA 91942,Hours of physical-restraint use,0,1.33,13404,Hours of seclusion use,0.01,4,13404,"5555 Grossmont Center Dr, La Mesa, CA, USA","3,278,157","-117,007,141",32.78157,-117.007141,42.0626,79.60835,108.8491,71.03049,158399947.6,100,Very High,83.83057274,Very High
50038,SANTA CLARA VALLEY MEDICAL CENTER,751 SOUTH BASCOM AVENUE,SAN JOSE,95128,SANTACLARA,CA,SANTACLARA_CA,751 SOUTH BASCOM AVENUE SAN JOSE CA 95128,Hours of physical-restraint use,1.19,458,15994,Hours of seclusion use,0.16,63,15994,"South Bascom Avenue, San Jose, CA, USA","37,273,217","-121,935,182",37.273217,-121.935182,11.85787,36.83756,64.54823,29.35533,14068112.53,44.61630496,Relatively High,17.99560961,Relatively Moderate
50040,LAC/OLIVE VIEW-UCLA MEDICAL CENTER,14445 OLIVE VIEW DRIVE,SYLMAR,91342,LOSANGELES,CA,LOSANGELES_CA,14445 OLIVE VIEW DRIVE SYLMAR CA 91342,Hours of physical-restraint use,1.2,520.14,18059,Hours of seclusion use,0.26,114.72,18059,"14445 Olive View Dr, Los Angeles, CA, USA","34,324,379","-118,448,374",34.324379,-118.448374,29.36135,64.88908,94.34958,56.57143,72562509.19,77.08781798,Very High,89.59134791,Very High
50047,CALIFORNIA PACIFIC MEDICAL CENTER- VAN NESS CAMPUS,1101 VAN NESS AVENUE,SAN FRANCISCO,94109,SANFRANCISCO,CA,SANFRANCISCO_CA,1101 VAN NESS AVENUE SAN FRANCISCO CA 94109,Hours of physical-restraint use,0.03,4.17,6093,Hours of seclusion use,0.03,4.83,6093,"1101 Van Ness Ave, San Francisco, CA, USA","37,785,978","-122,422,312",37.785978,-122.422312,0,0,1.555556,0,5135.909987,3.188752338,Very Low,2.569649504,Very Low
50057,KAWEAH HEALTH MEDICAL CENTER,400 W MINERAL KING AVE,VISALIA,93291,TULARE,CA,TULARE_CA,400 W MINERAL KING AVE VISALIA CA 93291,Hours of physical-restraint use,0.78,344.28,18482,Hours of seclusion use,0.96,424,18482,"West Mineral King Avenue, Visalia, CA, USA","36,327,531","-119,314,389",36.327531,-119.314389,34.23152,57.3682,73.27754,52.91213,2862224.783,26.24115227,Relatively Moderate,35.23350219,Relatively High
50058,GLENDALE MEM HOSPITAL & HLTH CENTER,1420 S CENTRAL AVE,GLENDALE,91204,LOSANGELES,CA,LOSANGELES_CA,1420 S CENTRAL AVE GLENDALE CA 91204,Hours of physical-restraint use,0.46,76.17,6912,Hours of seclusion use,0.02,3.75,6912,"Glendale, CA, USA","34,176,355","-11,824,774",34.176355,-118.24774,29.36135,64.88908,94.34958,56.57143,72562509.19,77.08781798,Very High,89.59134791,Very High
50069,PROVIDENCE ST. JOSEPH HOSPITAL,1100 WEST STEWART DR,ORANGE,92868,ORANGE,CA,ORANGE_CA,1100 WEST STEWART DR ORANGE CA 92868,Hours of physical-restraint use,3.32,172.42,2165,Hours of seclusion use,0.47,24.42,2165,"1100 W Stewart Dr, Orange, CA, USA","33,782,182","-117,865,334",33.782182,-117.865334,12.73913,53.6087,93.45217,42.76522,20284273.37,50.40436414,Relatively High,37.44278218,Relatively High
50077,SCRIPPS MERCY HOSPITAL,4077 5TH AVE,SAN DIEGO,92103,SANDIEGO,CA,SANDIEGO_CA,4077 5TH AVE SAN DIEGO CA 92103,Hours of physical-restraint use,0.01,2.38,16344,Hours of seclusion use,0,0,16344,"5th Avenue, San Diego, CA, USA","3,273,145","-117,160,295",32.73145,-117.160295,42.0626,79.60835,108.8491,71.03049,158399947.6,100,Very High,83.83057274,Very High
50078,PROVIDENCE LITTLE CO OF MARY MED CTR SAN PEDRO,1300 W 7TH ST,SAN PEDRO,90732,LOSANGELES,CA,LOSANGELES_CA,1300 W 7TH ST SAN PEDRO CA 90732,Hours of physical-restraint use,0.71,138.12,8092,Hours of seclusion use,0.17,33.67,8092,"West 7th Street, Los Angeles, CA, USA","33,737,842","-118,285,648",33.737842,-118.285648,29.36135,64.88908,94.34958,56.57143,72562509.19,77.08781798,Very High,89.59134791,Very High
50089,COMMUNITY HOSPITAL OF SAN BERNARDINO,1805 MEDICAL CENTER DRIVE,SAN BERNARDINO,92411,SANBERNARDINO,CA,SANBERNARDINO_CA,1805 MEDICAL CENTER DRIVE SAN BERNARDINO CA 92411,Hours of physical-restraint use,0.36,189.77,22234,Hours of seclusion use,0.49,262.22,22234,"Medical Center Drive, San Bernardino, CA, USA","34,110,946","-117,323,035",34.110946,-117.323035,82.92344,119.4439,138.9523,113.4822,62613272.1,73.39003962,Very High,74.85520658,Very High
50113,SAN MATEO MEDICAL CENTER,222 W 39TH AVE,SAN MATEO,94403,SANMATEO,CA,SANMATEO_CA,222 W 39TH AVE SAN MATEO CA 94403,Hours of physical-restraint use,0.2,37.92,7729,Hours of seclusion use,0.74,136.5,7729,"222 W 39th Ave, San Mateo, CA, USA","37,530,913","-122,300,168",37.530913,-122.300168,2.95082,11.65574,26.86885,8.459017,4511177.261,30.53830674,Relatively High,16.47091083,Relatively Moderate
50115,PALOMAR HEALTH DOWNTOWN CAMPUS,555 EAST VALLEY PARKWAY,ESCONDIDO,92025,SANDIEGO,CA,SANDIEGO_CA,555 EAST VALLEY PARKWAY ESCONDIDO CA 92025,Hours of physical-restraint use,0.15,18.19,5041,Hours of seclusion use,0.08,10.14,5041,"East Valley Parkway, Escondido, CA, USA","33,155,132","-117,031,686",33.155132,-117.031686,42.0626,79.60835,108.8491,71.03049,158399947.6,100,Very High,83.83057274,Very High
50116,NORTHRIDGE HOSPITAL MEDICAL CENTER,18300 ROSCOE BLVD,NORTHRIDGE,91325,LOSANGELES,CA,LOSANGELES_CA,18300 ROSCOE BLVD NORTHRIDGE CA 91325,Hours of physical-restraint use,0,0.61,7145,Hours of seclusion use,0,0,7145,"Roscoe Boulevard, Los Angeles, CA, USA","34,221,223","-118,502,261",34.221223,-118.502261,29.36135,64.88908,94.34958,56.57143,72562509.19,77.08781798,Very High,89.59134791,Very High
50124,USC VERDUGO HILLS HOSPITAL,1812 VERDUGO BLVD,GLENDALE,91208,LOSANGELES,CA,LOSANGELES_CA,1812 VERDUGO BLVD GLENDALE CA 91208,Hours of physical-restraint use,0,0,6020,Hours of seclusion use,0,0,6020,"1812 Verdugo Blvd, Glendale, CA, USA","3,420,553","-118,216,799",34.20553,-118.216799,29.36135,64.88908,94.34958,56.57143,72562509.19,77.08781798,Very High,89.59134791,Very High
50127,WOODLAND MEMORIAL HOSPITAL,1325 COTTONWOOD STREET,WOODLAND,95695,YOLO,CA,YOLO_CA,1325 COTTONWOOD STREET WOODLAND CA 95695,Hours of physical-restraint use,0.11,33.57,12870,Hours of seclusion use,0.02,5.51,12870,"Woodland, CA, USA","38,681,446","-121,752,768",38.681446,-121.752768,53.8494,99.85542,127.3675,90.52409,175307.7578,10.34384571,Relatively Low,8.708628837,Relatively Low
50128,TRI-CITY MEDICAL CENTER,4002 VISTA WAY,OCEANSIDE,92056,SANDIEGO,CA,SANDIEGO_CA,4002 VISTA WAY OCEANSIDE CA 92056,Hours of physical-restraint use,Not Available,Not Available,Not Available,Hours of seclusion use,Not Available,Not Available,Not Available,"4002 Vista Way, Oceanside, CA, USA","33,184,329","-117,291,805",33.184329,-117.291805,42.0626,79.60835,108.8491,71.03049,158399947.6,100,Very High,83.83057274,Very High
50132,SAN GABRIEL VALLEY MEDICAL CENTER,438 W LAS TUNAS DRIVE,SAN GABRIEL,91776,LOSANGELES,CA,LOSANGELES_CA,438 W LAS TUNAS DRIVE SAN GABRIEL CA 91776,Hours of physical-restraint use,0,0,8665,Hours of seclusion use,0,0,8665,"438 W Las Tunas Dr, San Gabriel, CA, USA","34,100,806","-118,105,878",34.100806,-118.105878,29.36135,64.88908,94.34958,56.57143,72562509.19,77.08781798,Very High,89.59134791,Very High
50145,COMMUNITY HOSPITAL OF THE MONTEREY PENINSULA,23625 W R HOLMAN HIGHWAY,MONTEREY,93940,MONTEREY,CA,MONTEREY_CA,23625 W R HOLMAN HIGHWAY MONTEREY CA 93940,Hours of physical-restraint use,0,0.22,3919,Hours of seclusion use,0,0,3919,"Monterey, CA, USA","36,598,828","-121,898,426",36.598828,-121.898426,21.91171,46.5113,69.0924,40.17659,5501290.838,32.62645266,Relatively High,38.73471947,Relatively High
50152,SAINT FRANCIS MEMORIAL HOSPITAL,900 HYDE ST,SAN FRANCISCO,94109,SANFRANCISCO,CA,SANFRANCISCO_CA,900 HYDE ST SAN FRANCISCO CA 94109,Hours of physical-restraint use,0.04,9.83,10416,Hours of seclusion use,0.01,1.58,10416,"900 Hyde Street, San Francisco, CA, USA","37,789,579","-122,416,776",37.789579,-122.416776,0,0,1.555556,0,5135.909987,3.188752338,Very Low,2.569649504,Very Low
50158,ENCINO HOSPITAL MEDICAL CENTER,16237 VENTURA BLVD,ENCINO,91436,LOSANGELES,CA,LOSANGELES_CA,16237 VENTURA BLVD ENCINO CA 91436,Hours of physical-restraint use,0,0,2153,Hours of seclusion use,0,0,2153,"16237 Ventura Blvd, Los Angeles, CA, USA","34,157,039","-118,487,157",34.157039,-118.487157,29.36135,64.88908,94.34958,56.57143,72562509.19,77.08781798,Very High,89.59134791,Very High
50228,ZUCKERBERG SAN FRANCISCO GENERAL HOSP & TRAUMA CTR,1001 POTRERO AVENUE,SAN FRANCISCO,94110,SANFRANCISCO,CA,SANFRANCISCO_CA,1001 POTRERO AVENUE SAN FRANCISCO CA 94110,Hours of physical-restraint use,2.72,550.39,8432,Hours of seclusion use,19.22,3888.71,8432,"1001 Potrero Ave, San Francisco, CA, USA","37,756,158","-122,405,666",37.756158,-122.405666,0,0,1.555556,0,5135.909987,3.188752338,Very Low,2.569649504,Very Low
50239,GLENDALE ADVENTIST MEDICAL CENTER,1509 E WILSON TERRACE,GLENDALE,91206,LOSANGELES,CA,LOSANGELES_CA,1509 E WILSON TERRACE GLENDALE CA 91206,Hours of physical-restraint use,0.13,20.85,6782,Hours of seclusion use,0.36,58.7,6782,"Glendale, CA, USA","34,176,355","-11,824,774",34.176355,-118.24774,29.36135,64.88908,94.34958,56.57143,72562509.19,77.08781798,Very High,89.59134791,Very High
50245,ARROWHEAD REGIONAL MEDICAL CENTER,400 NORTH PEPPER AVENUE,COLTON,92324,SANBERNARDINO,CA,SANBERNARDINO_CA,400 NORTH PEPPER AVENUE COLTON CA 92324,Hours of physical-restraint use,0.32,170.05,21837,Hours of seclusion use,0.29,150.83,21837,"Colton, CA, USA","34,059,181","-117,318,795",34.059181,-117.318795,82.92344,119.4439,138.9523,113.4822,62613272.1,73.39003962,Very High,74.85520658,Very High
50257,GOOD SAMARITAN HOSPITAL,901 OLIVE DRIVE,BAKERSFIELD,93308,KERN,CA,KERN_CA,901 OLIVE DRIVE BAKERSFIELD CA 93308,Hours of physical-restraint use,0,0,3034,Hours of seclusion use,0,0,3034,"901 Olive Dr, Kern, CA, USA","35,411,727","-119,039,745",35.411727,-119.039745,55.11687,91.84033,116.4,84.6321,12173973.59,42.51665678,Relatively High,46.17234503,Relatively High
50272,REDLANDS COMMUNITY HOSPITAL,350 TERRACINA BLVD,REDLANDS,92373,SANBERNARDINO,CA,SANBERNARDINO_CA,350 TERRACINA BLVD REDLANDS CA 92373,Hours of physical-restraint use,0.69,19.35,1173,Hours of seclusion use,0,0,1173,"350 Terracina Blvd, Redlands, CA, USA","34,037,711","-117,206,485",34.037711,-117.206485,82.92344,119.4439,138.9523,113.4822,62613272.1,73.39003962,Very High,74.85520658,Very High
50276,CONTRA COSTA REGIONAL MEDICAL CENTER,2500 ALHAMBRA AVENUE,MARTINEZ,94553,CONTRACOSTA,CA,CONTRACOSTA_CA,2500 ALHAMBRA AVENUE MARTINEZ CA 94553,Hours of physical-restraint use,1.46,213.76,6108,Hours of seclusion use,2.67,391.06,6108,"2500 Alhambra Ave, Martinez, CA, USA","38,006,565","-122,132,915",38.006565,-122.132915,19.93518,53.64815,87.09259,44.24074,6723429.076,34.88284767,Relatively High,22.35691016,Relatively Moderate
50289,AHMC SETON MEDICAL CENTER,1900 SULLIVAN AVENUE,DALY CITY,94015,SANMATEO,CA,SANMATEO_CA,1900 SULLIVAN AVENUE DALY CITY CA 94015,Hours of physical-restraint use,0,0,5122,Hours of seclusion use,0.07,9,5122,"1900 Sullivan Ave, Daly City, CA, USA","37,679,708","-122,474,294",37.679708,-122.474294,2.95082,11.65574,26.86885,8.459017,4511177.261,30.53830674,Relatively High,16.47091083,Relatively Moderate
50305,ALTA BATES SUMMIT MEDICAL CENTER - ALTA BATES CAMP,2450 ASHBY AVENUE,BERKELEY,94705,ALAMEDA,CA,ALAMEDA_CA,2450 ASHBY AVENUE BERKELEY CA 94705,Hours of physical-restraint use,2.6,1215.99,19458,Hours of seclusion use,1.97,921.78,19458,"2450 Ashby Ave, Berkeley, CA, USA","37,855,927","-122,257,304",37.855927,-122.257304,10.78261,33.44348,59.86087,26.70435,3804850.947,28.85321453,Relatively High,20.90924939,Relatively Moderate
50308,EL CAMINO HOSPITAL,2500 GRANT ROAD,MOUNTAIN VIEW,94040,SANTACLARA,CA,SANTACLARA_CA,2500 GRANT ROAD MOUNTAIN VIEW CA 94040,Hours of physical-restraint use,0.37,70.17,7812,Hours of seclusion use,0.31,57.21,7812,"2500 Grant Rd, Mountain View, CA, USA","37,370,624","-122,082,708",37.370624,-122.082708,11.85787,36.83756,64.54823,29.35533,14068112.53,44.61630496,Relatively High,17.99560961,Relatively Moderate
50320,HIGHLAND HOSPITAL,1411 EAST 31ST STREET,OAKLAND,94602,ALAMEDA,CA,ALAMEDA_CA,1411 EAST 31ST STREET OAKLAND CA 94602,Hours of physical-restraint use,0.18,121.32,28800,Hours of seclusion use,0.19,130.85,28800,"1411 E 31st St, Oakland, CA, USA","37,798,283","-122,231,671",37.798283,-122.231671,10.78261,33.44348,59.86087,26.70435,3804850.947,28.85321453,Relatively High,20.90924939,Relatively Moderate
50329,CORONA REGIONAL MEDICAL CENTER,800 SOUTH MAIN STREET,CORONA,92882,RIVERSIDE,CA,RIVERSIDE_CA,800 SOUTH MAIN STREET CORONA CA 92882,Hours of physical-restraint use,0,0,11302,Hours of seclusion use,0,0,11302,"800 S Main St, Corona, CA, USA","33,873,044","-11,756,842",33.873044,-117.56842,94.80191,129.6354,148.1024,123.2852,135750440.2,94.98654061,Very High,100,Very High
50348,UNIVERSITY OF CALIFORNIA IRVINE MEDICAL CENTER,101 CITY DRIVE SOUTH,ORANGE,92868,ORANGE,CA,ORANGE_CA,101 CITY DRIVE SOUTH ORANGE CA 92868,Hours of physical-restraint use,0.86,132.44,6391,Hours of seclusion use,0.2,31.31,6391,"Orange, CA, USA","33,802,647","-11,784,931",33.802647,-117.84931,12.73913,53.6087,93.45217,42.76522,20284273.37,50.40436414,Relatively High,37.44278218,Relatively High
50360,MARIN GENERAL HOSPITAL,"250 BON AIR ROAD, PO BOX 8010",GREENBRAE,94904,MARIN,CA,MARIN_CA,"250 BON AIR ROAD, PO BOX 8010 GREENBRAE CA 94904",Hours of physical-restraint use,0.08,26.85,14914,Hours of seclusion use,0.06,22.35,14914,"250 Bon Air Rd, Larkspur, CA, USA","37,947,337","-122,535,905",37.947337,-122.535905,1.505747,10.91954,33.64368,7.137931,2353905.935,24.58544217,Relatively Moderate,9.645146776,Relatively Low
50373,LAC+USC MEDICAL CENTER,"1200 N STATE ST, ROOM C2K100",LOS ANGELES,90033,LOSANGELES,CA,LOSANGELES_CA,"1200 N STATE ST, ROOM C2K100 LOS ANGELES CA 90033",Hours of physical-restraint use,15.46,7406.76,19956,Hours of seclusion use,4.31,2066.02,19956,"1200 N State St, Los Angeles, CA, USA","34,060,399","-118,208,807",34.060399,-118.208807,29.36135,64.88908,94.34958,56.57143,72562509.19,77.08781798,Very High,89.59134791,Very High
50376,LAC/HARBOR-UCLA MED CENTER,1000 W CARSON ST,TORRANCE,90502,LOSANGELES,CA,LOSANGELES_CA,1000 W CARSON ST TORRANCE CA 90502,Hours of physical-restraint use,2.3,732.9,13272,Hours of seclusion use,0.68,215.17,13272,"W Carson Street, Torrance, CA, USA","33,830,965","-118,358,243",33.830965,-118.358243,29.36135,64.88908,94.34958,56.57143,72562509.19,77.08781798,Very High,89.59134791,Very High
50380,GOOD SAMARITAN HOSPITAL,2425 SAMARITAN DRIVE,SAN JOSE,95124,SANTACLARA,CA,SANTACLARA_CA,2425 SAMARITAN DRIVE SAN JOSE CA 95124,Hours of physical-restraint use,0,0,6510,Hours of seclusion use,0,0,6510,"2425 Samaritan Dr, San Jose, CA, USA","37,251,694","-121,946,486",37.251694,-121.946486,11.85787,36.83756,64.54823,29.35533,14068112.53,44.61630496,Relatively High,17.99560961,Relatively Moderate
50426,WEST ANAHEIM MEDICAL CENTER,3033 W ORANGE AVENUE,ANAHEIM,92804,ORANGE,CA,ORANGE_CA,3033 W ORANGE AVENUE ANAHEIM CA 92804,Hours of physical-restraint use,0,0,3512,Hours of seclusion use,0,0,3512,"West Orange Avenue, Anaheim, CA, USA","33,824,634","-118,005,882",33.824634,-118.005882,12.73913,53.6087,93.45217,42.76522,20284273.37,50.40436414,Relatively High,37.44278218,Relatively High
50438,HUNTINGTON MEMORIAL HOSPITAL,100 W  CALIFORNIA BLVD,PASADENA,91109,LOSANGELES,CA,LOSANGELES_CA,100 W  CALIFORNIA BLVD PASADENA CA 91109,Hours of physical-restraint use,0.86,121.77,5890,Hours of seclusion use,0.39,55.32,5890,"100 West California Boulevard, Pasadena, CA, USA","34,134,359","-118,152,575",34.134359,-118.152575,29.36135,64.88908,94.34958,56.57143,72562509.19,77.08781798,Very High,89.59134791,Very High
50441,STANFORD HEALTH CARE,300 PASTEUR DRIVE,STANFORD,94305,SANTACLARA,CA,SANTACLARA_CA,300 PASTEUR DRIVE STANFORD CA 94305,Hours of physical-restraint use,0.27,83.25,12782,Hours of seclusion use,0.08,23.83,12782,"Pasteur Drive, Stanford, CA, USA","37,433,541","-122,178,539",37.433541,-122.178539,11.85787,36.83756,64.54823,29.35533,14068112.53,44.61630496,Relatively High,17.99560961,Relatively Moderate
50464,DOCTORS MEDICAL CENTER,1441 FLORIDA AVENUE,MODESTO,95350,STANISLAUS,CA,STANISLAUS_CA,1441 FLORIDA AVENUE MODESTO CA 95350,Hours of physical-restraint use,0.45,114.67,10508,Hours of seclusion use,0.1,25.8,10508,"1441 Florida Ave, Modesto, CA, USA","37,665,402","-120,997,439",37.665402,-120.997439,47.51293,93.29311,122.2026,83.93535,572958.2118,15.35050397,Relatively Moderate,16.37382597,Relatively Moderate
50526,HUNTINGTON BEACH HOSPITAL,17772 BEACH BLVD,HUNTINGTON BEACH,92647,ORANGE,CA,ORANGE_CA,17772 BEACH BLVD HUNTINGTON BEACH CA 92647,Hours of physical-restraint use,0,0,3459,Hours of seclusion use,0,0,3459,"Beach Boulevard, Huntington Beach, CA, USA","33,676,417","-117,988,537",33.676417,-117.988537,12.73913,53.6087,93.45217,42.76522,20284273.37,50.40436414,Relatively High,37.44278218,Relatively High
50567,PROVIDENCE MISSION HOSPITAL,27700 MEDICAL CENTER RD,MISSION VIEJO,92691,ORANGE,CA,ORANGE_CA,27700 MEDICAL CENTER RD MISSION VIEJO CA 92691,Hours of physical-restraint use,0.27,44.22,6912,Hours of seclusion use,0,0.5,6912,"Medical Center Road, Mission Viejo, CA, USA","33,560,195","-117,666,063",33.560195,-117.666063,12.73913,53.6087,93.45217,42.76522,20284273.37,50.40436414,Relatively High,37.44278218,Relatively High
50580,LA PALMA INTERCOMMUNITY HOSPITAL,7901 WALKER STREET,LA PALMA,90623,ORANGE,CA,ORANGE_CA,7901 WALKER STREET LA PALMA CA 90623,Hours of physical-restraint use,0,0,1510,Hours of seclusion use,0,0,1510,"7901 Walker St, La Palma, CA, USA","33,847,533","-118,038,414",33.847533,-118.038414,12.73913,53.6087,93.45217,42.76522,20284273.37,50.40436414,Relatively High,37.44278218,Relatively High
50624,HENRY MAYO NEWHALL  HOSPITAL,23845  MCBEAN PKWY,VALENCIA,91355,LOSANGELES,CA,LOSANGELES_CA,23845  MCBEAN PKWY VALENCIA CA 91355,Hours of physical-restraint use,1.71,240.52,5867,Hours of seclusion use,0.2,28.85,5867,"Valencia, San Bernardino, CA, USA","34,139,271","-117,274,009",34.139271,-117.274009,29.36135,64.88908,94.34958,56.57143,72562509.19,77.08781798,Very High,89.59134791,Very High
50636,PALOMAR MEDICAL CENTER POWAY,15615 POMERADO ROAD,POWAY,92064,SANDIEGO,CA,SANDIEGO_CA,15615 POMERADO ROAD POWAY CA 92064,Hours of physical-restraint use,0,0,4776,Hours of seclusion use,0,0,4776,"15615 Pomerado Rd, Poway, CA, USA","32,996,481","-117,057,264",32.996481,-117.057264,42.0626,79.60835,108.8491,71.03049,158399947.6,100,Very High,83.83057274,Very High
50744,ANAHEIM GLOBAL MEDICAL CENTER,1025 S ANAHEIM BLVD,ANAHEIM,92805,ORANGE,CA,ORANGE_CA,1025 S ANAHEIM BLVD ANAHEIM CA 92805,Hours of physical-restraint use,0.39,257.8,27640,Hours of seclusion use,0,1.92,27640,"1025 S Anaheim Blvd, Anaheim, CA, USA","33,819,842","-117,909,255",33.819842,-117.909255,12.73913,53.6087,93.45217,42.76522,20284273.37,50.40436414,Relatively High,37.44278218,Relatively High
50745,CHAPMAN GLOBAL MEDICAL CENTER,2601 E CHAPMAN AVE,ORANGE,92869,ORANGE,CA,ORANGE_CA,2601 E CHAPMAN AVE ORANGE CA 92869,Hours of physical-restraint use,0,0,3818,Hours of seclusion use,0,0,3818,"East Chapman Avenue, Orange, CA, USA","33,787,876","-117,852,569",33.787876,-117.852569,12.73913,53.6087,93.45217,42.76522,20284273.37,50.40436414,Relatively High,37.44278218,Relatively High
50746,ORANGE COUNTY GLOBAL MEDICAL CENTER,1001 NORTH TUSTIN AVENUE,SANTA ANA,92705,ORANGE,CA,ORANGE_CA,1001 NORTH TUSTIN AVENUE SANTA ANA CA 92705,Hours of physical-restraint use,Not Available,Not Available,Not Available,Hours of seclusion use,Not Available,Not Available,Not Available,"North Tustin Avenue, Santa Ana, CA, USA","33,758,751","-117,834,252",33.758751,-117.834252,12.73913,53.6087,93.45217,42.76522,20284273.37,50.40436414,Relatively High,37.44278218,Relatively High
50747,COASTAL COMMUNITIES HOSPITAL,2701 S BRISTOL ST,SANTA ANA,92704,ORANGE,CA,ORANGE_CA,2701 S BRISTOL ST SANTA ANA CA 92704,Hours of physical-restraint use,0,0,5294,Hours of seclusion use,0,0,5294,"2701 S Bristol St, Santa Ana, CA, USA","33,711,089","-117,884,309",33.711089,-117.884309,12.73913,53.6087,93.45217,42.76522,20284273.37,50.40436414,Relatively High,37.44278218,Relatively High
50755,SHERMAN OAKS HOSPITAL,4929 VAN NUYS BLVD,SHERMAN OAKS,91403,LOSANGELES,CA,LOSANGELES_CA,4929 VAN NUYS BLVD SHERMAN OAKS CA 91403,Hours of physical-restraint use,0,0,2429,Hours of seclusion use,0,0,2429,"4929 Van Nuys Blvd, Los Angeles, CA, USA","34,160,258","-118,448,896",34.160258,-118.448896,29.36135,64.88908,94.34958,56.57143,72562509.19,77.08781798,Very High,89.59134791,Very High
50757,ALVARADO HOSPITAL MEDICAL CENTER,6655 ALVARADO ROAD,SAN DIEGO,92120,SANDIEGO,CA,SANDIEGO_CA,6655 ALVARADO ROAD SAN DIEGO CA 92120,Hours of physical-restraint use,0,0,2451,Hours of seclusion use,0,0,2451,"6655 Alvarado Rd, San Diego, CA, USA","32,776,095","-117,057,405",32.776095,-117.057405,42.0626,79.60835,108.8491,71.03049,158399947.6,100,Very High,83.83057274,Very High
50764,SHASTA REGIONAL MEDICAL CENTER,1100 BUTTE ST,REDDING,96001,SHASTA,CA,SHASTA_CA,1100 BUTTE ST REDDING CA 96001,Hours of physical-restraint use,0,0,228,Hours of seclusion use,0,0,228,"1100 Butte St, Redding, CA, USA","40,585,613","-122,387,655",40.585613,-122.387655,24.0947,55.72873,80.45265,48.38523,6684482.088,34.81536159,Relatively High,37.95129213,Relatively High
54009,RESNICK NEUROPSYCHIATRIC HOSPITAL AT UCLA,150 MEDICAL PLAZA-RM-4230C,LOS ANGELES,90095,LOSANGELES,CA,LOSANGELES_CA,150 MEDICAL PLAZA-RM-4230C LOS ANGELES CA 90095,Hours of physical-restraint use,1.55,1003.13,26934,Hours of seclusion use,0.13,84.78,26934,"100 UCLA Medical Plaza, Los Angeles, CA, USA","34,065,615","-118,445,779",34.065615,-118.445779,29.36135,64.88908,94.34958,56.57143,72562509.19,77.08781798,Very High,89.59134791,Very High
54028,GATEWAYS HOSP  MENTAL HEALTH CTR,1891 EFFIE ST,LOS ANGELES,90026,LOSANGELES,CA,LOSANGELES_CA,1891 EFFIE ST LOS ANGELES CA 90026,Hours of physical-restraint use,0.31,89,12123,Hours of seclusion use,0.25,72,12123,"1891 Effie St, Los Angeles, CA, USA","34,084,486","-118,256,591",34.084486,-118.256591,29.36135,64.88908,94.34958,56.57143,72562509.19,77.08781798,Very High,89.59134791,Very High
54032,BHC ALHAMBRA HOSP,4619 N ROSEMEAD BLVD,ROSEMEAD,91770,LOSANGELES,CA,LOSANGELES_CA,4619 N ROSEMEAD BLVD ROSEMEAD CA 91770,Hours of physical-restraint use,0.04,32.1,31128,Hours of seclusion use,0,0.52,31128,"Rosemead, CA, USA","34,061,882","-118,084,892",34.061882,-118.084892,29.36135,64.88908,94.34958,56.57143,72562509.19,77.08781798,Very High,89.59134791,Very High
54053,DEL AMO HOSPITAL,23700 CAMINO DEL SOL,TORRANCE,90505,LOSANGELES,CA,LOSANGELES_CA,23700 CAMINO DEL SOL TORRANCE CA 90505,Hours of physical-restraint use,0.08,94.65,46808,Hours of seclusion use,0,4.75,46808,"23700 Camino Del Sol, Torrance, CA, USA","33,810,339","-118,344,242",33.810339,-118.344242,29.36135,64.88908,94.34958,56.57143,72562509.19,77.08781798,Very High,89.59134791,Very High
54055,COLLEGE HOSPITAL,10802 COLLEGE PL,CERRITOS,90703,LOSANGELES,CA,LOSANGELES_CA,10802 COLLEGE PL CERRITOS CA 90703,Hours of physical-restraint use,1.35,2039.83,62993,Hours of seclusion use,1.24,1876.44,62993,"10802 College Pl, Cerritos, CA, USA","33,884,322","-118,102,987",33.884322,-118.102987,29.36135,64.88908,94.34958,56.57143,72562509.19,77.08781798,Very High,89.59134791,Very High
54069,AURORA CHARTER OAK,1161 E COVINA BLVD,COVINA,91724,LOSANGELES,CA,LOSANGELES_CA,1161 E COVINA BLVD COVINA CA 91724,Hours of physical-restraint use,0.28,318.2,46814,Hours of seclusion use,0,0,46814,"1161 E Covina Blvd, Covina, CA, USA","34,100,383","-117,867,071",34.100383,-117.867071,29.36135,64.88908,94.34958,56.57143,72562509.19,77.08781798,Very High,89.59134791,Very High
54074,ADVENTIST HEALTH VALLEJO,525 OREGON ST,VALLEJO,94590,SOLANO,CA,SOLANO_CA,525 OREGON ST VALLEJO CA 94590,Hours of physical-restraint use,0.31,71.42,9580,Hours of seclusion use,0.27,61.98,9580,"525 Oregon Street, Vallejo, CA, USA","38,117,971","-122,249,054",38.117971,-122.249054,36.55738,79.7623,112.5656,69.42623,1127563.284,19.23661401,Relatively Moderate,15.64571292,Relatively Moderate
54075,ALVARADO PARKWAY INSTITUTE BEHAVIORAL HEALTH SYSTE,7050 PARKWAY DRIVE,LA MESA,91942,SANDIEGO,CA,SANDIEGO_CA,7050 PARKWAY DRIVE LA MESA CA 91942,Hours of physical-restraint use,0.18,42.38,10089,Hours of seclusion use,0,0.75,10089,"7050 Parkway Dr, La Mesa, CA, USA","32,774,583","-117,044,144",32.774583,-117.044144,42.0626,79.60835,108.8491,71.03049,158399947.6,100,Very High,83.83057274,Very High
54077,AURORA VISTA DEL MAR HOSPITAL,801 SENECA ST,VENTURA,93001,VENTURA,CA,VENTURA_CA,801 SENECA ST VENTURA CA 93001,Hours of physical-restraint use,0.06,123.93,86564,Hours of seclusion use,0.09,197.16,86564,"801 Seneca St, San Buenaventura (Ventura), CA, USA","34,307,941","-119,283,422",34.307941,-119.283422,14.41392,40.55678,67.94872,33.24176,27547323.5,55.8180669,Relatively High,40.34669507,Relatively High
54078,AURORA LAS ENCINAS,2900 E DEL MAR BLVD,PASADENA,91107,LOSANGELES,CA,LOSANGELES_CA,2900 E DEL MAR BLVD PASADENA CA 91107,Hours of physical-restraint use,0.18,127.03,29696,Hours of seclusion use,0.03,21.95,29696,"2900 E Del Mar Blvd, Pasadena, CA, USA","34,141,108","-118,092,857",34.141108,-118.092857,29.36135,64.88908,94.34958,56.57143,72562509.19,77.08781798,Very High,89.59134791,Very High
54087,"BHC SIERRA VISTA HOSPITAL, INC",8001 BRUCEVILLE ROAD,SACRAMENTO,95823,SACRAMENTO,CA,SACRAMENTO_CA,8001 BRUCEVILLE ROAD SACRAMENTO CA 95823,Hours of physical-restraint use,0.01,19.6,58369,Hours of seclusion use,0.2,281.47,58369,"Bruceville Road, Sacramento, CA, USA","38,447,033","-121,417,856",38.447033,-121.417856,45.34014,94.14966,124.7347,84.14286,732713.0765,16.66196826,Relatively Moderate,16.1384115,Relatively Moderate
54089,JEWISH HOME & REHAB CENTER,302  SILVER AVENUE,SAN FRANCISCO,94112,SANFRANCISCO,CA,SANFRANCISCO_CA,302  SILVER AVENUE SAN FRANCISCO CA 94112,Hours of physical-restraint use,0.02,2,3779,Hours of seclusion use,0.06,5,3779,"302 Silver Ave, San Francisco, CA, USA","3,772,778","-122,430,569",37.72778,-122.430569,0,0,1.555556,0,5135.909987,3.188752338,Very Low,2.569649504,Very Low
54093,LOMA LINDA UNIVERSITY BEHAVIORAL MED CTR,1710 BARTON ROAD,REDLANDS,92373,SANBERNARDINO,CA,SANBERNARDINO_CA,1710 BARTON ROAD REDLANDS CA 92373,Hours of physical-restraint use,0.07,31.08,19657,Hours of seclusion use,0.07,33.18,19657,"1710 Barton Rd, Redlands, CA, USA","34,049,301","-117,214,001",34.049301,-117.214001,82.92344,119.4439,138.9523,113.4822,62613272.1,73.39003962,Very High,74.85520658,Very High
54095,AURORA SAN DIEGO,11878 AVENUE OF INDUSTRY,SAN DIEGO,92128,SANDIEGO,CA,SANDIEGO_CA,11878 AVENUE OF INDUSTRY SAN DIEGO CA 92128,Hours of physical-restraint use,0.03,22.53,31871,Hours of seclusion use,0.04,31.99,31871,"11878 Avenue Of Industry, San Diego, CA, USA","32,991,603","-117,074,722",32.991603,-117.074722,42.0626,79.60835,108.8491,71.03049,158399947.6,100,Very High,83.83057274,Very High
54096,SUTTER CENTER FOR PSYCHIATRY,7700 FOLSOM BLVD,SACRAMENTO,95826,SACRAMENTO,CA,SACRAMENTO_CA,7700 FOLSOM BLVD SACRAMENTO CA 95826,Hours of physical-restraint use,0.03,13.88,21216,Hours of seclusion use,0.02,11.47,21216,"7700 Folsom Blvd, Sacramento, CA, USA","38,549,816","-121,414,462",38.549816,-121.414462,45.34014,94.14966,124.7347,84.14286,732713.0765,16.66196826,Relatively Moderate,16.1384115,Relatively Moderate
54104,HERITAGE OAKS HOSPITAL,4250 AUBURN BLVD,SACRAMENTO,95841,SACRAMENTO,CA,SACRAMENTO_CA,4250 AUBURN BLVD SACRAMENTO CA 95841,Hours of physical-restraint use,0.02,23.33,41573,Hours of seclusion use,0.1,103.37,41573,"Auburn Boulevard, Sacramento, CA, USA","38,620,914","-121,424,092",38.620914,-121.424092,45.34014,94.14966,124.7347,84.14286,732713.0765,16.66196826,Relatively Moderate,16.1384115,Relatively Moderate
54110,BHC FREMONT HOSPITAL INC,39001 SUNDALE DRIVE,FREMONT,94538,ALAMEDA,CA,ALAMEDA_CA,39001 SUNDALE DRIVE FREMONT CA 94538,Hours of physical-restraint use,0.06,60.5,41745,Hours of seclusion use,0.04,42.63,41745,"39001 Sundale Dr, Fremont, CA, USA","37,546,558","-121,978,983",37.546558,-121.978983,10.78261,33.44348,59.86087,26.70435,3804850.947,28.85321453,Relatively High,20.90924939,Relatively Moderate
54111,CANYON RIDGE HOSPITAL,5353 G STREET,CHINO,91710,SANBERNARDINO,CA,SANBERNARDINO_CA,5353 G STREET CHINO CA 91710,Hours of physical-restraint use,0.02,17.98,37708,Hours of seclusion use,0.01,8.72,37708,"5353 G St, Chino, CA, USA","34,009,181","-117,688,013",34.009181,-117.688013,82.92344,119.4439,138.9523,113.4822,62613272.1,73.39003962,Very High,74.85520658,Very High
54122,DEPT OF STATE HOSPITALS - NAPA,2100 NAPA VALLEJO HIGHWAY,NAPA,94558,NAPA,CA,NAPA_CA,2100 NAPA VALLEJO HIGHWAY NAPA CA 94558,Hours of physical-restraint use,10.56,4209.87,16609,Hours of seclusion use,2.84,1132.47,16609,"2100 Napa Vallejo Hwy, Napa, CA, USA","38,277,776","-122,267,023",38.277776,-122.267023,27.34959,65.78862,97.97561,55.89431,3373238.193,27.71813412,Relatively High,24.58800765,Relatively Moderate
54123,ST JOSEPH'S BEHAVIORAL HEALTH CENTER,2510 N  CALIFORNIA ST,STOCKTON,95204,SANJOAQUIN,CA,SANJOAQUIN_CA,2510 N  CALIFORNIA ST STOCKTON CA 95204,Hours of physical-restraint use,0.25,65.73,11047,Hours of seclusion use,0.15,39.2,11047,"2510 North California Street, Stockton, CA, USA","3,797,668","-121,290,818",37.97668,-121.290818,46.27027,94.27027,125.2883,84.37387,151636.4675,9.8555956,Relatively Low,10.19749414,Relatively Low
54124,SEMPERVIRENS,720 WOOD ST,EUREKA,95501,HUMBOLDT,CA,HUMBOLDT_CA,720 WOOD ST EUREKA CA 95501,Hours of physical-restraint use,0.45,43.4,4006,Hours of seclusion use,0.76,72.9,4006,"Wood Street, Eureka, CA, USA","40,781,154","-124,155,228",40.781154,-124.155228,7.319716,23.81172,43.4778,18.91829,1349148.221,20.42215386,Relatively Moderate,21.56576293,Relatively Moderate
54125,SANTA BARBARA COUNTY PSYCHIATRIC HEALTH FACILITY,315 CAMINO DEL REMEDIO,SANTA BARBARA,93110,SANTABARBARA,CA,SANTABARBARA_CA,315 CAMINO DEL REMEDIO SANTA BARBARA CA 93110,Hours of physical-restraint use,0.39,51.63,5562,Hours of seclusion use,0.32,42.57,5562,"Santa Barbara, CA, USA","34,389,656","-119,702,652",34.389656,-119.702652,13.799,36.18342,59.28141,30,9534282.065,39.19021573,Relatively High,37.46937397,Relatively High
54130,PACIFIC GROVE HOSPITAL,5900 BROCKTON AVE,RIVERSIDE,92506,RIVERSIDE,CA,RIVERSIDE_CA,5900 BROCKTON AVE RIVERSIDE CA 92506,Hours of physical-restraint use,0.09,91.79,41530,Hours of seclusion use,2.84,2833,41530,"5900 Brockton Ave, Riverside, CA, USA","33,962,283","-117,395,315",33.962283,-117.395315,94.80191,129.6354,148.1024,123.2852,135750440.2,94.98654061,Very High,100,Very High
54131,JOHN MUIR BEHAVIORAL HEALTH CENTER,2740 GRANT STREET,CONCORD,94524,CONTRACOSTA,CA,CONTRACOSTA_CA,2740 GRANT STREET CONCORD CA 94524,Hours of physical-restraint use,0.05,19.1,16806,Hours of seclusion use,0.07,28.2,16806,"2740 Grant St, Concord, CA, USA","37,985,859","-122,038,638",37.985859,-122.038638,19.93518,53.64815,87.09259,44.24074,6723429.076,34.88284767,Relatively High,22.35691016,Relatively Moderate
54133,DEPT OF STATE HOSPITALS - METROPOLITAN - PSY,11401 S NORWALK BLVD,NORWALK,90650,LOSANGELES,CA,LOSANGELES_CA,11401 S NORWALK BLVD NORWALK CA 90650,Hours of physical-restraint use,0.41,159.88,16345,Hours of seclusion use,0,0,16345,"Norwalk, CA, USA","33,908,903","-118,083,579",33.908903,-118.083579,29.36135,64.88908,94.34958,56.57143,72562509.19,77.08781798,Very High,89.59134791,Very High
54135,NEWPORT BAY HOSPITAL,1501 E 16TH ST,NEWPORT BEACH,92663,ORANGE,CA,ORANGE_CA,1501 E 16TH ST NEWPORT BEACH CA 92663,Hours of physical-restraint use,0.01,1.14,9138,Hours of seclusion use,0.01,2,9138,"East 16th Street, Newport Beach, CA, USA","33,623,728","-117,908,697",33.623728,-117.908697,12.73913,53.6087,93.45217,42.76522,20284273.37,50.40436414,Relatively High,37.44278218,Relatively High
54144,UCSF LANGLEY PORTER PSYCHIATRIC HOSPITAL AND CLINICS,401 PARNASSUS AVENUE,SAN FRANCISCO,94143,SANFRANCISCO,CA,SANFRANCISCO_CA,401 PARNASSUS AVENUE SAN FRANCISCO CA 94143,Hours of physical-restraint use,0.04,3.28,3248,Hours of seclusion use,0.08,6.43,3248,"401 Parnassus Avenue, San Francisco, CA, USA","37,763,466","-122,456,699",37.763466,-122.456699,0,0,1.555556,0,5135.909987,3.188752338,Very Low,2.569649504,Very Low
54145,SHARP MESA VISTA HOSPITAL,7850 VISTA HILL AVENUE,SAN DIEGO,92123,SANDIEGO,CA,SANDIEGO_CA,7850 VISTA HILL AVENUE SAN DIEGO CA 92123,Hours of physical-restraint use,0.05,43.95,36922,Hours of seclusion use,0.06,52.23,36922,"7850 Vista Hill Ave, San Diego, CA, USA","32,795,679","-117,155,228",32.795679,-117.155228,42.0626,79.60835,108.8491,71.03049,158399947.6,100,Very High,83.83057274,Very High
54146,TELECARE HERITAGE PSYCHIATRIC HEALTH FACILITY,"2633 E 27TH STREET, BUILDING B",OAKLAND,94601,ALAMEDA,CA,ALAMEDA_CA,"2633 E 27TH STREET, BUILDING B OAKLAND CA 94601",Hours of physical-restraint use,0.19,30.92,6904,Hours of seclusion use,0.13,22.03,6904,"2633 E 27th St, Oakland, CA, USA","37,790,631","-122,222,231",37.790631,-122.222231,10.78261,33.44348,59.86087,26.70435,3804850.947,28.85321453,Relatively High,20.90924939,Relatively Moderate
54147,JOYCE EISENBERG KEEFER MEDICAL CENTER,7150 TAMPA AVENUE,RESEDA,91335,LOSANGELES,CA,LOSANGELES_CA,7150 TAMPA AVENUE RESEDA CA 91335,Hours of physical-restraint use,0,0,1224,Hours of seclusion use,0,0,1224,"7150 Tampa Ave, Los Angeles, CA, USA","34,200,677","-118,553,318",34.200677,-118.553318,29.36135,64.88908,94.34958,56.57143,72562509.19,77.08781798,Very High,89.59134791,Very High
54148,TARZANA TREATMENT CENTER,18646 OXNARD STREET,TARZANA,91356,LOSANGELES,CA,LOSANGELES_CA,18646 OXNARD STREET TARZANA CA 91356,Hours of physical-restraint use,0,0,14089,Hours of seclusion use,0,0,14089,"18646 Oxnard St, Los Angeles, CA, USA","34,179,848","-118,540,269",34.179848,-118.540269,29.36135,64.88908,94.34958,56.57143,72562509.19,77.08781798,Very High,89.59134791,Very High
54149,WILLOW ROCK CENTER,2050 FAIRMONT DRIVE,SAN LEANDRO,94578,ALAMEDA,CA,ALAMEDA_CA,2050 FAIRMONT DRIVE SAN LEANDRO CA 94578,Hours of physical-restraint use,0.11,9.48,3653,Hours of seclusion use,0.21,17.98,3653,"San Leandro, CA, USA","37,702,074","-122,162,387",37.702074,-122.162387,10.78261,33.44348,59.86087,26.70435,3804850.947,28.85321453,Relatively High,20.90924939,Relatively Moderate
54150,KAISER PERMANENTE PSYCHIATRIC HEALTH FACILITY-SANT,3840 HOMESTEAD ROAD,SANTA CLARA,95051,SANTACLARA,CA,SANTACLARA_CA,3840 HOMESTEAD ROAD SANTA CLARA CA 95051,Hours of physical-restraint use,0.24,33.93,5853,Hours of seclusion use,0.07,10.35,5853,"Homestead Road, Santa Clara, CA, USA","37,345,789","-121,952,875",37.345789,-121.952875,11.85787,36.83756,64.54823,29.35533,14068112.53,44.61630496,Relatively High,17.99560961,Relatively Moderate
54151,"AURORA BEHAVIORAL HEALTHCARE-SANTA ROSA, LLC",1287 FULTON ROAD,SANTA ROSA,95401,SONOMA,CA,SONOMA_CA,1287 FULTON ROAD SANTA ROSA CA 95401,Hours of physical-restraint use,0.06,39.75,28086,Hours of seclusion use,1,674.07,28086,"1287 Fulton Rd, Santa Rosa, CA, USA","38,450,428","-122,771,511",38.450428,-122.771511,8.719512,32.01626,62.83333,24.56504,11819837.12,42.10032866,Relatively High,36.22091273,Relatively High
54152,SANTA CRUZ COUNTY PSYCHIATRIC HEALTH FACILITY,"2250 SOQUEL AVENUE, SUITE 150",SANTA CRUZ,95062,SANTACRUZ,CA,SANTACRUZ_CA,"2250 SOQUEL AVENUE, SUITE 150 SANTA CRUZ CA 95062",Hours of physical-restraint use,0.06,8.77,5667,Hours of seclusion use,0.4,55,5667,"Soquel Avenue, Santa Cruz, CA, USA","36,973,423","-122,023,552",36.973423,-122.023552,5.84058,22.24638,46.33333,16.65217,21463619.62,51.3628732,Relatively High,36.29985094,Relatively High
54153,OCEAN VIEW PSYCHIATRIC HEALTH FACILITY,"2600 REDONDO AVENUE, SUITE 500",LONG BEACH,90806,LOSANGELES,CA,LOSANGELES_CA,"2600 REDONDO AVENUE, SUITE 500 LONG BEACH CA 90806",Hours of physical-restraint use,0,0,5041,Hours of seclusion use,0,0,5041,"2600 Redondo Avenue, Long Beach, CA, USA","33,804,929","-118,150,668",33.804929,-118.150668,29.36135,64.88908,94.34958,56.57143,72562509.19,77.08781798,Very High,89.59134791,Very High
54154,SAN JOSE BEHAVIORAL HEALTH,455 SILICON VALLEY BOULEVARD,SAN JOSE,95138,SANTACLARA,CA,SANTACLARA_CA,455 SILICON VALLEY BOULEVARD SAN JOSE CA 95138,Hours of physical-restraint use,0.02,23,62255,Hours of seclusion use,0.02,29,62255,"Silicon Valley Boulevard, San Jose, CA, USA","37,249,931","-121,770,863",37.249931,-121.770863,11.85787,36.83756,64.54823,29.35533,14068112.53,44.61630496,Relatively High,17.99560961,Relatively Moderate
54155,"BAKERSFIELD BEHAVIORAL HEALTHCARE HOSPITAL, LLC",5201 WHITE LANE,BAKERSFIELD,93309,KERN,CA,KERN_CA,5201 WHITE LANE BAKERSFIELD CA 93309,Hours of physical-restraint use,0.09,46.33,20501,Hours of seclusion use,0.32,157.66,20501,"5201 White Ln, Kern, CA, USA","35,316,764","-119,060,641",35.316764,-119.060641,55.11687,91.84033,116.4,84.6321,12173973.59,42.51665678,Relatively High,46.17234503,Relatively High
54157,GLENDORA  HOSPITAL,150 WEST ROUTE 66,GLENDORA,91740,LOSANGELES,CA,LOSANGELES_CA,150 WEST ROUTE 66 GLENDORA CA 91740,Hours of physical-restraint use,Not Available,Not Available,Not Available,Hours of seclusion use,Not Available,Not Available,Not Available,"Route 66, Glendora, CA, USA","34,131,884","-117,843,879",34.131884,-117.843879,29.36135,64.88908,94.34958,56.57143,72562509.19,77.08781798,Very High,89.59134791,Very High
60009,LUTHERAN MEDICAL CENTER,8300 W 38TH AVE,WHEAT RIDGE,80033,JEFFERSON,CO,JEFFERSON_CO,8300 W 38TH AVE WHEAT RIDGE CO 80033,Hours of physical-restraint use,0.21,36.54,7262,Hours of seclusion use,0.97,168.56,7262,"8300 West 38th Avenue, Wheat Ridge, CO, USA","39,766,106","-105,090,349",39.766106,-105.090349,0.702479,9.652892,31.41322,7.429752,15172140.5,45.7541622,Relatively High,25.39852028,Relatively Moderate
60010,POUDRE VALLEY HOSPITAL,1024 S LEMAY AVE,FORT COLLINS,80524,LARIMER,CO,LARIMER_CO,1024 S LEMAY AVE FORT COLLINS CO 80524,Hours of physical-restraint use,0.13,28.37,9382,Hours of seclusion use,0.58,131.01,9382,"1024 S Lemay Ave, Fort Collins, CO, USA","4,057,177","-105,055,571",40.57177,-105.055571,0.333333,5.941919,20.9899,4.426768,3518048.376,28.10922841,Relatively High,16.80883835,Relatively Moderate
60011,DENVER HEALTH & HOSPITAL AUTHORITY,777 BANNOCK ST,DENVER,80204,DENVER,CO,DENVER_CO,777 BANNOCK ST DENVER CO 80204,Hours of physical-restraint use,0.58,254.92,18221,Hours of seclusion use,1.19,518.82,18221,"777 Bannock Street, Denver, CO, USA","39,728,464","-104,990,709",39.728464,-104.990709,5.032258,37.96774,76.06451,31.35484,8782.497493,3.813183165,Very Low,3.373427002,Very Low
60020,"PARKVIEW MEDICAL CENTER, INC",400 W 16TH ST,PUEBLO,81003,PUEBLO,CO,PUEBLO_CO,400 W 16TH ST PUEBLO CO 81003,Hours of physical-restraint use,0.52,46.45,3713,Hours of seclusion use,0.35,30.8,3713,"400 West 16Th Street, Pueblo, CO, USA","38,282,103","-104,612,684",38.282103,-104.612684,15.61968,55.57181,90.43883,48.96809,649383.8731,16.00474731,Relatively Moderate,19.42518831,Relatively Moderate
60027,BOULDER COMMUNITY HEALTH,4747 ARAPAHOE AVE,BOULDER,80303,BOULDER,CO,BOULDER_CO,4747 ARAPAHOE AVE BOULDER CO 80303,Hours of physical-restraint use,0.13,10.97,3490,Hours of seclusion use,1.26,105.37,3490,"4747 Arapahoe Avenue, Boulder, CO, USA","4,001,617","-10,523,668",40.01617,-105.23668,1.895161,16.19355,37.79032,13.03226,4004288.153,29.34878294,Relatively High,12.85552493,Relatively Low
60030,MCKEE MEDICAL CENTER,2000 BOISE AVE,LOVELAND,80538,LARIMER,CO,LARIMER_CO,2000 BOISE AVE LOVELAND CO 80538,Hours of physical-restraint use,0.1,7.52,3000,Hours of seclusion use,0.83,59.8,3000,"Boise Avenue, Loveland, CO, USA","40,413,911","-105,053,631",40.413911,-105.053631,0.333333,5.941919,20.9899,4.426768,3518048.376,28.10922841,Relatively High,16.80883835,Relatively Moderate
60044,COLORADO PLAINS MEDICAL CENTER,1000 LINCOLN ST,FORT MORGAN,80701,MORGAN,CO,MORGAN_CO,1000 LINCOLN ST FORT MORGAN CO 80701,Hours of physical-restraint use,0,0,3144,Hours of seclusion use,0,0,3144,"1000 Lincoln St, Fort Morgan, CO, USA","40,260,395","-103,795,595",40.260395,-103.795595,14.60829,53.23502,85.76037,47.31337,2872.406208,2.627223022,Very Low,2.769172519,Very Low
60064,CENTURA HEALTH-PORTER ADVENTIST HOSPITAL,2525 S DOWNING ST,DENVER,80210,DENVER,CO,DENVER_CO,2525 S DOWNING ST DENVER CO 80210,Hours of physical-restraint use,0.04,43.98,41033,Hours of seclusion use,0.03,33.67,41033,"2525 S Downing St, Denver, CO, USA","39,670,055","-104,974,899",39.670055,-104.974899,5.032258,37.96774,76.06451,31.35484,8782.497493,3.813183165,Very Low,3.373427002,Very Low
60100,AURORA SOUTH HOSPITAL AND MEDICAL CENTER,1501 S POTOMAC ST,AURORA,80012,ARAPAHOE,CO,ARAPAHOE_CO,1501 S POTOMAC ST AURORA CO 80012,Hours of physical-restraint use,0,0,6399,Hours of seclusion use,0.11,17.1,6399,"1501 South Potomac Street, Aurora District, CO, USA","39,689,274","-104,831,851",39.689274,-104.831851,5.768595,37.97521,74.4876,31.92562,17189.40007,4.769818957,Very Low,3.294136837,Very Low
64001,COLORADO MENTAL HEALTH INSTITUTE AT PUEBLO-PSYCH,1600 W 24TH ST,PUEBLO,81003,PUEBLO,CO,PUEBLO_CO,1600 W 24TH ST PUEBLO CO 81003,Hours of physical-restraint use,0.49,1786.01,150885,Hours of seclusion use,1.41,5121.78,150885,"1600 West 24Th Street, Pueblo, CO, USA","38,289,205","-104,630,498",38.289205,-104.630498,15.61968,55.57181,90.43883,48.96809,649383.8731,16.00474731,Relatively Moderate,19.42518831,Relatively Moderate
64003,COLORADO MENTAL HEALTH INSTITUTE AT FT LOGAN,3520 W OXFORD AVE,DENVER,80236,DENVER,CO,DENVER_CO,3520 W OXFORD AVE DENVER CO 80236,Hours of physical-restraint use,0.06,39.96,28366,Hours of seclusion use,0.12,84.08,28366,"3520 W Oxford Ave, Denver, CO, USA","39,641,003","-105,032,593",39.641003,-105.032593,5.032258,37.96774,76.06451,31.35484,8782.497493,3.813183165,Very Low,3.373427002,Very Low
64007,CENTENNIAL PEAKS HOSPITAL,2255 S 88TH ST,LOUISVILLE,80027,BOULDER,CO,BOULDER_CO,2255 S 88TH ST LOUISVILLE CO 80027,Hours of physical-restraint use,0.08,56.15,27609,Hours of seclusion use,0.11,76.18,27609,"2255 South 88th Street, Louisville, CO, USA","39,951,559","-105,148,392",39.951559,-105.148392,1.895161,16.19355,37.79032,13.03226,4004288.153,29.34878294,Relatively High,12.85552493,Relatively Low
64009,CEDAR SPRINGS HOSPITAL,2135 SOUTHGATE RD,COLORADO SPRINGS,80906,ELPASO,CO,ELPASO_CO,2135 SOUTHGATE RD COLORADO SPRINGS CO 80906,Hours of physical-restraint use,0.12,55.17,19841,Hours of seclusion use,0.11,52.4,19841,"Southgate Road, Colorado Springs, CO, USA","38,806,373","-104,821,536",38.806373,-104.821536,0.910714,15.69345,46.52083,11.99107,4955197.847,31.50905091,Relatively High,20.47800907,Relatively Moderate
64023,"WEST SPRINGS HOSPITAL, INC",515 28 3/4 RD,GRAND JUNCTION,81501,MESA,CO,MESA_CO,515 28 3/4 RD GRAND JUNCTION CO 81501,Hours of physical-restraint use,0.05,20,15322,Hours of seclusion use,0.9,331,15322,"515 28 3/4 Road, Grand Junction, CO, USA","39,079,211","-108,520,324",39.079211,-108.520324,4.588349,24.72816,50.93398,20.1165,809472.7691,17.22459702,Relatively Moderate,14.81560459,Relatively Moderate
64024,HIGHLANDS BEHAVIORAL HEALTH SYSTEM,8565 S POPLAR WAY,LITTLETON,80130,DOUGLAS,CO,DOUGLAS_CO,8565 S POPLAR WAY LITTLETON CO 80130,Hours of physical-restraint use,0.07,35.5,20845,Hours of seclusion use,0.13,63.25,20845,"Littleton, CO, USA","39,585,202","-105,008,655",39.585202,-105.008655,0.286885,13.77049,46,10.01639,2200469.744,24.0392062,Relatively Moderate,0.466370108,Very Low
64026,PEAK VIEW BEHAVIORAL HEALTH,7353 SISTERS GROVE,COLORADO SPRINGS,80923,ELPASO,CO,ELPASO_CO,7353 SISTERS GROVE COLORADO SPRINGS CO 80923,Hours of physical-restraint use,Not Available,Not Available,Not Available,Hours of seclusion use,Not Available,Not Available,Not Available,"Colorado Springs, CO, USA","38,875,356","-104,813,228",38.875356,-104.813228,0.910714,15.69345,46.52083,11.99107,4955197.847,31.50905091,Relatively High,20.47800907,Relatively Moderate
64028,DENVER SPRINGS,8835 AMERICAN WY,ENGLEWOOD,80112,ARAPAHOE,CO,ARAPAHOE_CO,8835 AMERICAN WY ENGLEWOOD CO 80112,Hours of physical-restraint use,0.04,23.75,26291,Hours of seclusion use,0.03,21.82,26291,"Englewood, CO, USA","39,640,813","-104,991,667",39.640813,-104.991667,5.768595,37.97521,74.4876,31.92562,17189.40007,4.769818957,Very Low,3.294136837,Very Low
70002,ST FRANCIS HOSPITAL & MEDICAL CENTER,114 WOODLAND STREET,HARTFORD,6105,HARTFORD,CT,HARTFORD_CT,114 WOODLAND STREET HARTFORD CT 6105,Hours of physical-restraint use,0.6,112.5,7797,Hours of seclusion use,0.36,66.62,7797,"114 Woodland Street, Canton, CT, USA","41,775,082","-72,699,194",41.775082,-72.699194,11.58475,43.55932,74.59322,36.95763,15049.87305,4.563092449,Very Low,3.845986073,Very Low
70004,SHARON HOSPITAL,50 HOSPITAL HILL ROAD,SHARON,6069,LITCHFIELD,CT,LITCHFIELD_CT,50 HOSPITAL HILL ROAD SHARON CT 6069,Hours of physical-restraint use,0,0.07,7461,Hours of seclusion use,0,0,7461,"Hospital Hill Road, Sharon, CT, USA","41,880,002","-73,482,572",41.880002,-73.482572,5.743243,30.81081,62.04054,24.70946,14067.27679,4.461542144,Very Low,2.867676411,Very Low
70005,WATERBURY HOSPITAL,64 ROBBINS ST,WATERBURY,6721,NEWHAVEN,CT,NEWHAVEN_CT,64 ROBBINS ST WATERBURY CT 6721,Hours of physical-restraint use,0.18,21.03,4879,Hours of seclusion use,0.14,16.7,4879,"64 Robbins St, Waterbury, CT, USA","4,156,187","-73,060,708",41.56187,-73.060708,11.7449,43.40816,75,36.72449,5495.906948,3.261580579,Very Low,2.884972682,Very Low
70008,JOHNSON MEMORIAL HOSPITAL,201 CHESTNUT HILL ROAD,STAFFORD SPRINGS,6076,TOLLAND,CT,TOLLAND_CT,201 CHESTNUT HILL ROAD STAFFORD SPRINGS CT 6076,Hours of physical-restraint use,0.04,2.8,3132,Hours of seclusion use,0.23,17.5,3132,"Stafford Springs, CT, USA","41,957,755","-72,307,871",41.957755,-72.307871,6.338235,32.32353,62.94118,26.23529,8958.595691,3.838500791,Very Low,1.439898721,Very Low
70010,BRIDGEPORT HOSPITAL,267 GRANT STREET,BRIDGEPORT,6610,FAIRFIELD,CT,FAIRFIELD_CT,267 GRANT STREET BRIDGEPORT CT 6610,Hours of physical-restraint use,1.14,364.36,13339,Hours of seclusion use,0,0,13339,"267 Grant Street, Bridgeport, CT, USA","41,189,188","-73,166,922",41.189188,-73.166922,14.88889,48.36111,79.86111,41.74074,2367.4606,2.463254258,Very Low,1.343747996,Very Low
70011,CHARLOTTE HUNGERFORD HOSPITAL,540 LITCHFIELD ST,TORRINGTON,6790,LITCHFIELD,CT,LITCHFIELD_CT,540 LITCHFIELD ST TORRINGTON CT 6790,Hours of physical-restraint use,0.36,45.38,5263,Hours of seclusion use,0,0,5263,"540 Litchfield Street, Torrington, CT, USA","41,791,996","-73,134,271",41.791996,-73.134271,5.743243,30.81081,62.04054,24.70946,14067.27679,4.461542144,Very Low,2.867676411,Very Low
70016,SAINT MARY'S HOSPITAL,56 FRANKLIN STEET,WATERBURY,6706,NEWHAVEN,CT,NEWHAVEN_CT,56 FRANKLIN STEET WATERBURY CT 6706,Hours of physical-restraint use,0.1,5.5,2390,Hours of seclusion use,0,0,2390,"Waterbury, CT, USA","41,556,533","-73,037,159",41.556533,-73.037159,11.7449,43.40816,75,36.72449,5495.906948,3.261580579,Very Low,2.884972682,Very Low
70020,MIDDLESEX HOSPITAL,28 CRESCENT ST,MIDDLETOWN,6457,MIDDLESEX,CT,MIDDLESEX_CT,28 CRESCENT ST MIDDLETOWN CT 6457,Hours of physical-restraint use,0.41,64.93,6524,Hours of seclusion use,0.15,22.98,6524,"28 Crescent Street, Middletown, CT, USA","41,554,306","-72,647,398",41.554306,-72.647398,9.66129,39.93548,71.29032,33.37097,4662.294784,3.087556393,Very Low,1.635466706,Very Low
70022,YALE-NEW HAVEN HOSPITAL,20 YORK ST,NEW HAVEN,6504,NEWHAVEN,CT,NEWHAVEN_CT,20 YORK ST NEW HAVEN CT 6504,Hours of physical-restraint use,0.34,319.63,39346,Hours of seclusion use,0,0,39346,"20 York Street, New Haven, CT, USA","41,304,393","-72,935,715",41.304393,-72.935715,11.7449,43.40816,75,36.72449,5495.906948,3.261580579,Very Low,2.884972682,Very Low
70024,WILLIAM W BACKUS HOSPITAL,326 WASHINGTON ST,NORWICH,6360,NEWLONDON,CT,NEWLONDON_CT,326 WASHINGTON ST NORWICH CT 6360,Hours of physical-restraint use,0.08,8.42,4548,Hours of seclusion use,1.39,151.38,4548,"326 Washington Street, Norwich, CT, USA","4,154,264","-72,088,676",41.54264,-72.088676,9.872881,38.69492,69.77119,32.35593,12814.23535,4.324931375,Very Low,3.210029074,Very Low
70025,HARTFORD HOSPITAL,80 SEYMOUR STREET,HARTFORD,6102,HARTFORD,CT,HARTFORD_CT,80 SEYMOUR STREET HARTFORD CT 6102,Hours of physical-restraint use,5.63,3952.15,29264,Hours of seclusion use,1.84,1289.43,29264,"80 Seymour Street, Canton, CT, USA","41,754,172","-72,680,198",41.754172,-72.680198,11.58475,43.55932,74.59322,36.95763,15049.87305,4.563092449,Very Low,3.845986073,Very Low
70027,MANCHESTER MEMORIAL HOSPITAL,71 HAYNES ST,MANCHESTER,6040,HARTFORD,CT,HARTFORD_CT,71 HAYNES ST MANCHESTER CT 6040,Hours of physical-restraint use,0.21,74.81,14888,Hours of seclusion use,0.58,205.77,14888,"71 Haynes Street, Manchester, CT, USA","4,178,169","-72,525,484",41.78169,-72.525484,11.58475,43.55932,74.59322,36.95763,15049.87305,4.563092449,Very Low,3.845986073,Very Low
70028,ST VINCENT'S MEDICAL CENTER,2800 MAIN ST,BRIDGEPORT,6606,FAIRFIELD,CT,FAIRFIELD_CT,2800 MAIN ST BRIDGEPORT CT 6606,Hours of physical-restraint use,0.1,58.12,24841,Hours of seclusion use,0,0,24841,"2800 Main Street, Bridgeport, CT, USA","41,201,329","-7,320,178",41.201329,-73.20178,14.88889,48.36111,79.86111,41.74074,2367.4606,2.463254258,Very Low,1.343747996,Very Low
70029,BRISTOL HOSPITAL,41 BREWSTER RD,BRISTOL,6010,HARTFORD,CT,HARTFORD_CT,41 BREWSTER RD BRISTOL CT 6010,Hours of physical-restraint use,0.13,13.1,4052,Hours of seclusion use,0,0,4052,"41 Brewster Road, Bristol, CT, USA","41,676,417","-72,935,008",41.676417,-72.935008,11.58475,43.55932,74.59322,36.95763,15049.87305,4.563092449,Very Low,3.845986073,Very Low
70031,GRIFFIN HOSPITAL,130 DIVISION ST,DERBY,6418,NEWHAVEN,CT,NEWHAVEN_CT,130 DIVISION ST DERBY CT 6418,Hours of physical-restraint use,0.38,22.52,2468,Hours of seclusion use,0,0,2468,"130 Division Street, Derby, CT, USA","41,335,025","-73,088,623",41.335025,-73.088623,11.7449,43.40816,75,36.72449,5495.906948,3.261580579,Very Low,2.884972682,Very Low
70033,DANBURY HOSPITAL,24 HOSPITAL AVE,DANBURY,6810,FAIRFIELD,CT,FAIRFIELD_CT,24 HOSPITAL AVE DANBURY CT 6810,Hours of physical-restraint use,0.27,17.43,2704,Hours of seclusion use,0.01,0.48,2704,"24 Hospital Avenue, Danbury, CT, USA","4,140,498","-73,443,513",41.40498,-73.443513,14.88889,48.36111,79.86111,41.74074,2367.4606,2.463254258,Very Low,1.343747996,Very Low
70034,NORWALK HOSPITAL,24 STEVENS STREET,NORWALK,6856,FAIRFIELD,CT,FAIRFIELD_CT,24 STEVENS STREET NORWALK CT 6856,Hours of physical-restraint use,0.31,11.68,1563,Hours of seclusion use,0,0,1563,"Stevens Street, Norwalk, CT, USA","41,110,351","-73,421,838",41.110351,-73.421838,14.88889,48.36111,79.86111,41.74074,2367.4606,2.463254258,Very Low,1.343747996,Very Low
70035,THE HOSPITAL OF CENTRAL CONNECTICUT,100 GRAND STREET,NEW BRITAIN,6050,HARTFORD,CT,HARTFORD_CT,100 GRAND STREET NEW BRITAIN CT 6050,Hours of physical-restraint use,1.78,371.33,8703,Hours of seclusion use,0.41,86.23,8703,"100 Grand St, New Britain, CT, USA","41,661,475","-72,786,599",41.661475,-72.786599,11.58475,43.55932,74.59322,36.95763,15049.87305,4.563092449,Very Low,3.845986073,Very Low
70036,JOHN DEMPSEY HOSPITAL,263 FARMINGTON AVE,FARMINGTON,6032,HARTFORD,CT,HARTFORD_CT,263 FARMINGTON AVE FARMINGTON CT 6032,Hours of physical-restraint use,0.8,109.77,5733,Hours of seclusion use,0.21,28.39,5733,"263 Farmington Ave, Farmington, CT, USA","41,734,182","-72,793,791",41.734182,-72.793791,11.58475,43.55932,74.59322,36.95763,15049.87305,4.563092449,Very Low,3.845986073,Very Low
70039,MASONICARE HEALTH CENTER HOSPITAL,22 MASONIC AVE,WALLINGFORD,6492,NEWHAVEN,CT,NEWHAVEN_CT,22 MASONIC AVE WALLINGFORD CT 6492,Hours of physical-restraint use,2.81,594,8794,Hours of seclusion use,0.23,49,8794,"22 Masonic Avenue, Wallingford Center, CT, USA","41,462,755","-72,835,673",41.462755,-72.835673,11.7449,43.40816,75,36.72449,5495.906948,3.261580579,Very Low,2.884972682,Very Low
70040,HEBREW HOME AND HOSPITAL INC,1 ABRAHMS BOULEVARD,WEST HARTFORD,6117,HARTFORD,CT,HARTFORD_CT,1 ABRAHMS BOULEVARD WEST HARTFORD CT 6117,Hours of physical-restraint use,0.2,43.5,8877,Hours of seclusion use,0.26,55.9,8877,"West Hartford, CT, USA","41,769,858","-72,752,718",41.769858,-72.752718,11.58475,43.55932,74.59322,36.95763,15049.87305,4.563092449,Very Low,3.845986073,Very Low
74003,CONNECTICUT VALLEY HOSP,SILVER ST,MIDDLETOWN,6457,MIDDLESEX,CT,MIDDLESEX_CT,SILVER ST MIDDLETOWN CT 6457,Hours of physical-restraint use,0.43,769.38,74669,Hours of seclusion use,0.06,107.5,74669,"Silver Street, Middletown, CT, USA","41,555,568","-72,625,221",41.555568,-72.625221,9.66129,39.93548,71.29032,33.37097,4662.294784,3.087556393,Very Low,1.635466706,Very Low
74008,NATCHAUG HOSPITAL,189 STORRS RD,MANSFIELD CENTER,6250,TOLLAND,CT,TOLLAND_CT,189 STORRS RD MANSFIELD CENTER CT 6250,Hours of physical-restraint use,0.05,18.67,15376,Hours of seclusion use,0.3,110.88,15376,"Storrs Road, Mansfield Center, CT, USA","41,763,682","-72,197,196",41.763682,-72.197196,6.338235,32.32353,62.94118,26.23529,8958.595691,3.838500791,Very Low,1.439898721,Very Low
74011,CONNECTICUT MENTAL HEALTH CENTER,34 PARK STREET,NEW HAVEN,6508,NEWHAVEN,CT,NEWHAVEN_CT,34 PARK STREET NEW HAVEN CT 6508,Hours of physical-restraint use,0.07,16,8909,Hours of seclusion use,0,0.67,8909,"34 Park St, New Haven, CT, USA","41,305,136","-72,936,753",41.305136,-72.936753,11.7449,43.40816,75,36.72449,5495.906948,3.261580579,Very Low,2.884972682,Very Low
74012,SOUTHWEST CONNECTICUT MENTAL HEALTH,1635 CENTRAL AVE,BRIDGEPORT,6610,FAIRFIELD,CT,FAIRFIELD_CT,1635 CENTRAL AVE BRIDGEPORT CT 6610,Hours of physical-restraint use,0.39,197.57,21313,Hours of seclusion use,0.17,85.55,21313,"Central Avenue, Bridgeport, CT, USA","41,180,116","-73,165,996",41.180116,-73.165996,14.88889,48.36111,79.86111,41.74074,2367.4606,2.463254258,Very Low,1.343747996,Very Low
74014,SILVER HILL HOSPITAL INC,208 VALLEY ROAD,NEW CANAAN,6840,FAIRFIELD,CT,FAIRFIELD_CT,208 VALLEY ROAD NEW CANAAN CT 6840,Hours of physical-restraint use,0,0.02,7267,Hours of seclusion use,0.02,3.8,7267,"208 Valley Rd, New Canaan, CT, USA","41,164,659","-73,472,983",41.164659,-73.472983,14.88889,48.36111,79.86111,41.74074,2367.4606,2.463254258,Very Low,1.343747996,Very Low
74015,ALBERT J SOLNIT CHILDREN'S CENTER - SOUTH CAMPUS,915 RIVER ROAD,MIDDLETOWN,6457,MIDDLESEX,CT,MIDDLESEX_CT,915 RIVER ROAD MIDDLETOWN CT 6457,Hours of physical-restraint use,Not Available,Not Available,Not Available,Hours of seclusion use,Not Available,Not Available,Not Available,"915 River Road, Middletown, CT, USA","41,557,551","-72,614,363",41.557551,-72.614363,9.66129,39.93548,71.29032,33.37097,4662.294784,3.087556393,Very Low,1.635466706,Very Low
